[{"neighborhood": "Brandon", "occur_time": "09", "longitude": "-84.424980000000005", "latitude": "33.831330000000001", "occur_date": "02/02/2016", "type": "LARCENY-FROM VEHICLE", "day": "Tue", "street_address": "1160 MOORES MILL RD NW"}, {"neighborhood": "Brandon", "occur_time": "16", "longitude": "-84.407660000000007", "latitude": "33.824420000000003", "occur_date": "02/18/2016", "type": "LARCENY-NON VEHICLE", "day": "Thu", "street_address": "2531 NORTHSIDE DR NW"}, {"neighborhood": "Brandon", "occur_time": "05", "longitude": "-84.424980000000005", "latitude": "33.831330000000001", "occur_date": "05/05/2016", "type": "LARCENY-FROM VEHICLE", "day": "Thu", "street_address": "1160 MOORES MILL RD NW"}, {"neighborhood": "Brandon", "occur_time": "17", "longitude": "-84.424980000000005", "latitude": "33.831330000000001", "occur_date": "05/12/2016", "type": "LARCENY-FROM VEHICLE", "day": "Thu", "street_address": "1160 MOORES MILL RD NW"}, {"neighborhood": "Brandon", "occur_time": "18", "longitude": "-84.419290000000004", "latitude": "33.831940000000003", "occur_date": "05/19/2016", "type": "LARCENY-FROM VEHICLE", "day": "Thu", "street_address": "970 NAWENCH DR NW"}, {"neighborhood": "Brandon", "occur_time": "11", "longitude": "-84.424980000000005", "latitude": "33.831330000000001", "occur_date": "05/30/2016", "type": "LARCENY-FROM VEHICLE", "day": "Mon", "street_address": "1160 MOORES MILL RD"}, {"neighborhood": "Brandon", "occur_time": "15", "longitude": "-84.424980000000005", "latitude": "33.831330000000001", "occur_date": "05/27/2016", "type": "LARCENY-NON VEHICLE", "day": "Fri", "street_address": "1160 MOORES MILL RD NW"}, {"neighborhood": "Brandon", "occur_time": "09", "longitude": "-84.424980000000005", "latitude": "33.831330000000001", "occur_date": "06/02/2016", "type": "LARCENY-FROM VEHICLE", "day": "Thu", "street_address": "1160 MOORES MILL RD NW"}, {"neighborhood": "Brandon", "occur_time": "22", "longitude": "-84.419210000000007", "latitude": "33.823050000000002", "occur_date": "06/10/2016", "type": "LARCENY-NON VEHICLE", "day": "Sat", "street_address": "959 PEACHTREE BATTLE CIR NW"}, {"neighborhood": "Brandon", "occur_time": "10", "longitude": "-84.420349999999999", "latitude": "33.83352", "occur_date": "07/08/2016", "type": "LARCENY-NON VEHICLE", "day": "Fri", "street_address": "2888 HOWELL MILL RD NW"}, {"neighborhood": "Brandon", "occur_time": "20", "longitude": "-84.412049999999994", "latitude": "33.829470000000001", "occur_date": "08/02/2016", "type": "AUTO THEFT", "day": "Wed", "street_address": "2761 CARMON ON WESLEY NW"}, {"neighborhood": "Brandon", "occur_time": "10", "longitude": "-84.4191", "latitude": "33.827669999999998", "occur_date": "08/05/2016", "type": "LARCENY-FROM VEHICLE", "day": "Fri", "street_address": "25 CHATSWORTH PL NW"}, {"neighborhood": "Brandon", "occur_time": "18", "longitude": "-84.411910000000006", "latitude": "33.830649999999999", "occur_date": "08/08/2016", "type": "LARCENY-FROM VEHICLE", "day": "Tue", "street_address": "2791 CARMON ON WESLEY NW"}, {"neighborhood": "Brandon", "occur_time": "18", "longitude": "-84.422150000000002", "latitude": "33.832299999999996", "occur_date": "08/09/2016", "type": "AUTO THEFT", "day": "Wed", "street_address": "1058 NAWENCH DR NW"}, {"neighborhood": "Brandon", "occur_time": "11", "longitude": "-84.420670000000001", "latitude": "33.83623", "occur_date": "08/19/2016", "type": "ROBBERY-RESIDENCE", "day": "Fri", "street_address": "2980 HOWELL MILL RD NW"}, {"neighborhood": "Brandon", "occur_time": "17", "longitude": "-84.423469999999995", "latitude": "33.835189999999997", "occur_date": "06/30/2016", "type": "BURGLARY-RESIDENCE", "day": "Unk", "street_address": "1112 MOORES MILL RD NW"}, {"neighborhood": "Brandon", "occur_time": "17", "longitude": "-84.424980000000005", "latitude": "33.831330000000001", "occur_date": "09/08/2016", "type": "LARCENY-FROM VEHICLE", "day": "Thu", "street_address": "1160 MOORES MILL RD NW"}, {"neighborhood": "Brandon", "occur_time": "10", "longitude": "-84.424980000000005", "latitude": "33.831330000000001", "occur_date": "09/29/2016", "type": "LARCENY-FROM VEHICLE", "day": "Thu", "street_address": "1160 MOORES MILL RD NW"}, {"neighborhood": "Brandon", "occur_time": "11", "longitude": "-84.424980000000005", "latitude": "33.831330000000001", "occur_date": "11/03/2016", "type": "AUTO THEFT", "day": "Thu", "street_address": "1160 MOORES MILL RD NW"}, {"neighborhood": "Brandon", "occur_time": "21", "longitude": "-84.408779999999993", "latitude": "33.829099999999997", "occur_date": "11/21/2016", "type": "LARCENY-FROM VEHICLE", "day": "Tue", "street_address": "641 W WESLEY RD NW"}, {"neighborhood": "Brandon", "occur_time": "11", "longitude": "-84.424980000000005", "latitude": "33.831330000000001", "occur_date": "11/23/2016", "type": "AUTO THEFT", "day": "Wed", "street_address": "1160 MOORES MILL RD NW"}, {"neighborhood": "Brandon", "occur_time": "19", "longitude": "-84.417050000000003", "latitude": "33.825510000000001", "occur_date": "11/23/2016", "type": "BURGLARY-RESIDENCE", "day": "Unk", "street_address": "935 PEACHTREE BATTLE AVE NW"}, {"neighborhood": "Brandon", "occur_time": "06", "longitude": "-84.424980000000005", "latitude": "33.831330000000001", "occur_date": "12/29/2016", "type": "LARCENY-FROM VEHICLE", "day": "Thu", "street_address": "1160 MOORES MILL RD NW"}, {"neighborhood": "Brandon", "occur_time": "18", "longitude": "-84.42013", "latitude": "33.827449999999999", "occur_date": "12/29/2016", "type": "LARCENY-FROM VEHICLE", "day": "Thu", "street_address": "2325 MARIETTA BLVD"}]