[{"neighborhood": "Bush Mountain", "occur_time": "08", "longitude": "-84.427750000000003", "latitude": "33.728360000000002", "occur_date": "02/01/2016", "type": "BURGLARY-NONRES", "day": "Unk", "street_address": "973 OAKLAND DR SW"}, {"neighborhood": "Bush Mountain", "occur_time": "19", "longitude": "-84.428790000000006", "latitude": "33.728279999999998", "occur_date": "02/27/2016", "type": "AUTO THEFT", "day": "Sat", "street_address": "1251 PLAZA AVE SW"}, {"neighborhood": "Bush Mountain", "occur_time": "15", "longitude": "-84.431839999999994", "latitude": "33.727760000000004", "occur_date": "02/26/2016", "type": "BURGLARY-RESIDENCE", "day": "Unk", "street_address": "1348 PLAZA AVE SW"}, {"neighborhood": "Bush Mountain", "occur_time": "22", "longitude": "-84.427539999999993", "latitude": "33.72739", "occur_date": "03/20/2016", "type": "AGG ASSAULT", "day": "Sun", "street_address": "1015 OAKLAND DR SW"}, {"neighborhood": "Bush Mountain", "occur_time": "18", "longitude": "-84.428640000000001", "latitude": "33.72748", "occur_date": "03/29/2016", "type": "AGG ASSAULT", "day": "Tue", "street_address": "1245 LADD ST SW"}, {"neighborhood": "Bush Mountain", "occur_time": "07", "longitude": "-84.429310000000001", "latitude": "33.726660000000003", "occur_date": "04/08/2016", "type": "BURGLARY-RESIDENCE", "day": "Fri", "street_address": "1265 BRIDGES AVE SW"}, {"neighborhood": "Bush Mountain", "occur_time": "14", "longitude": "-84.431129999999996", "latitude": "33.728299999999997", "occur_date": "05/28/2016", "type": "LARCENY-FROM VEHICLE", "day": "Sat", "street_address": "1325 PLAZA AVE SW"}, {"neighborhood": "Bush Mountain", "occur_time": "02", "longitude": "-84.432360000000003", "latitude": "33.72831", "occur_date": "05/27/2016", "type": "LARCENY-NON VEHICLE", "day": "Unk", "street_address": "1363 PLAZA AVE"}, {"neighborhood": "Bush Mountain", "occur_time": "13", "longitude": "-84.432069999999996", "latitude": "33.726619999999997", "occur_date": "06/07/2016", "type": "BURGLARY-RESIDENCE", "day": "Tue", "street_address": "1351 BRIDGES AVE SW"}, {"neighborhood": "Bush Mountain", "occur_time": "23", "longitude": "-84.427539999999993", "latitude": "33.72739", "occur_date": "06/18/2016", "type": "LARCENY-NON VEHICLE", "day": "Sat", "street_address": "1015 OAKLAND DR SW"}, {"neighborhood": "Bush Mountain", "occur_time": "17", "longitude": "-84.430639999999997", "latitude": "33.728319999999997", "occur_date": "06/19/2016", "type": "BURGLARY-NONRES", "day": "Unk", "street_address": "1311 PLAZA AVE SW"}, {"neighborhood": "Bush Mountain", "occur_time": "20", "longitude": "-84.432019999999994", "latitude": "33.727910000000001", "occur_date": "06/27/2016", "type": "BURGLARY-NONRES", "day": "Tue", "street_address": "1352 PLAZA AVE SW"}, {"neighborhood": "Bush Mountain", "occur_time": "12", "longitude": "-84.427750000000003", "latitude": "33.728360000000002", "occur_date": "07/06/2016", "type": "LARCENY-NON VEHICLE", "day": "Wed", "street_address": "973 OAKLAND DR"}, {"neighborhood": "Bush Mountain", "occur_time": "22", "longitude": "-84.431889999999996", "latitude": "33.726759999999999", "occur_date": "07/25/2016", "type": "BURGLARY-RESIDENCE", "day": "Tue", "street_address": "1345 BRIDGES AVE SW"}, {"neighborhood": "Bush Mountain", "occur_time": "05", "longitude": "-84.433059999999998", "latitude": "33.72795", "occur_date": "08/12/2016", "type": "BURGLARY-RESIDENCE", "day": "Fri", "street_address": "1380 PLAZA AVE SW"}, {"neighborhood": "Bush Mountain", "occur_time": "16", "longitude": "-84.437259999999995", "latitude": "33.727519999999998", "occur_date": "09/18/2016", "type": "BURGLARY-RESIDENCE", "day": "Mon", "street_address": "1018 WESTMONT RD SW"}, {"neighborhood": "Bush Mountain", "occur_time": "23", "longitude": "-84.432050000000004", "latitude": "33.726759999999999", "occur_date": "10/11/2016", "type": "AUTO THEFT", "day": "Tue", "street_address": "1351 BRIDGES AVE SW"}, {"neighborhood": "Bush Mountain", "occur_time": "21", "longitude": "-84.431560000000005", "latitude": "33.727449999999997", "occur_date": "10/19/2016", "type": "BURGLARY-RESIDENCE", "day": "Thu", "street_address": "1014 VIOLET ST SW"}, {"neighborhood": "Bush Mountain", "occur_time": "06", "longitude": "-84.427840000000003", "latitude": "33.726619999999997", "occur_date": "12/04/2016", "type": "AUTO THEFT", "day": "Sun", "street_address": "1223 BRIDGES AVE SW"}]