[{"neighborhood": "Penelope Neighbors", "occur_time": "20", "longitude": "-84.448759999999993", "latitude": "33.754100000000001", "occur_date": "01/06/2016", "type": "AGG ASSAULT", "day": "Thu", "street_address": "1883 PENELOPE RD NW"}, {"neighborhood": "Penelope Neighbors", "occur_time": "18", "longitude": "-84.455960000000005", "latitude": "33.754199999999997", "occur_date": "02/07/2016", "type": "AUTO THEFT", "day": "Sun", "street_address": "2151 PENELOPE ST NW"}, {"neighborhood": "Penelope Neighbors", "occur_time": "10", "longitude": "-84.454250000000002", "latitude": "33.752949999999998", "occur_date": "02/25/2016", "type": "LARCENY-FROM VEHICLE", "day": "Thu", "street_address": "2095 PENELOPE ST NW"}, {"neighborhood": "Penelope Neighbors", "occur_time": "13", "longitude": "-84.444680000000005", "latitude": "33.750950000000003", "occur_date": "03/16/2016", "type": "LARCENY-FROM VEHICLE", "day": "Wed", "street_address": "I-20 WB EXPY NW / MARTIN L KING JR DR NW"}, {"neighborhood": "Penelope Neighbors", "occur_time": "14", "longitude": "-84.453580000000002", "latitude": "33.753779999999999", "occur_date": "04/05/2016", "type": "LARCENY-FROM VEHICLE", "day": "Tue", "street_address": "273 CHANAULT PL NW"}, {"neighborhood": "Penelope Neighbors", "occur_time": "11", "longitude": "-84.454390000000004", "latitude": "33.751429999999999", "occur_date": "04/11/2016", "type": "LARCENY-NON VEHICLE", "day": "Mon", "street_address": "160 TORRENCE ST NW"}, {"neighborhood": "Penelope Neighbors", "occur_time": "02", "longitude": "-84.456440000000001", "latitude": "33.754579999999997", "occur_date": "04/13/2016", "type": "AUTO THEFT", "day": "Wed", "street_address": "2167 PENELOPE ST NW"}, {"neighborhood": "Penelope Neighbors", "occur_time": "09", "longitude": "-84.445959999999999", "latitude": "33.751840000000001", "occur_date": "04/25/2016", "type": "LARCENY-NON VEHICLE", "day": "Mon", "street_address": "98 ANDERSON AVE SW"}, {"neighborhood": "Penelope Neighbors", "occur_time": "01", "longitude": "-84.444680000000005", "latitude": "33.750950000000003", "occur_date": "05/01/2016", "type": "LARCENY-FROM VEHICLE", "day": "Sun", "street_address": "I-20 WB EXPY NW / MARTIN L KING JR DR NW"}, {"neighborhood": "Penelope Neighbors", "occur_time": "20", "longitude": "-84.455280000000002", "latitude": "33.752879999999998", "occur_date": "05/06/2016", "type": "LARCENY-FROM VEHICLE", "day": "Fri", "street_address": "215 COLLUM ST NW"}, {"neighborhood": "Penelope Neighbors", "occur_time": "22", "longitude": "-84.451239999999999", "latitude": "33.753039999999999", "occur_date": "05/12/2016", "type": "AUTO THEFT", "day": "Fri", "street_address": "211 AARON ST NW"}, {"neighborhood": "Penelope Neighbors", "occur_time": "23", "longitude": "-84.453059999999994", "latitude": "33.751370000000001", "occur_date": "05/14/2016", "type": "BURGLARY-RESIDENCE", "day": "Unk", "street_address": "164 HOWARD ST NW"}, {"neighborhood": "Penelope Neighbors", "occur_time": "08", "longitude": "-84.449879999999993", "latitude": "33.754109999999997", "occur_date": "05/18/2016", "type": "BURGLARY-RESIDENCE", "day": "Wed", "street_address": "1899 PENELOPE RD NW"}, {"neighborhood": "Penelope Neighbors", "occur_time": "00", "longitude": "-84.451239999999999", "latitude": "33.753039999999999", "occur_date": "05/30/2016", "type": "LARCENY-FROM VEHICLE", "day": "Mon", "street_address": "211 AARON ST NW"}, {"neighborhood": "Penelope Neighbors", "occur_time": "02", "longitude": "-84.451409999999996", "latitude": "33.754060000000003", "occur_date": "05/30/2016", "type": "AUTO THEFT", "day": "Mon", "street_address": "241 AARON ST NW"}, {"neighborhood": "Penelope Neighbors", "occur_time": "12", "longitude": "-84.452780000000004", "latitude": "33.752899999999997", "occur_date": "06/08/2016", "type": "LARCENY-FROM VEHICLE", "day": "Wed", "street_address": "HOWARD ST NW / PENELOPE ST NW"}, {"neighborhood": "Penelope Neighbors", "occur_time": "16", "longitude": "-84.449330000000003", "latitude": "33.75365", "occur_date": "06/12/2016", "type": "AUTO THEFT", "day": "Sun", "street_address": "1892 PENELOPE RD NW"}, {"neighborhood": "Penelope Neighbors", "occur_time": "22", "longitude": "-84.451239999999999", "latitude": "33.753039999999999", "occur_date": "06/14/2016", "type": "LARCENY-FROM VEHICLE", "day": "Tue", "street_address": "211 AARON ST NW"}, {"neighborhood": "Penelope Neighbors", "occur_time": "18", "longitude": "-84.445170000000005", "latitude": "33.752980000000001", "occur_date": "06/15/2016", "type": "RAPE", "day": "Wed", "street_address": "80 JESSE HILL JR DR SE"}, {"neighborhood": "Penelope Neighbors", "occur_time": "03", "longitude": "-84.450109999999995", "latitude": "33.75309", "occur_date": "06/20/2016", "type": "LARCENY-FROM VEHICLE", "day": "Mon", "street_address": "1965 PENELOPE ST NW"}, {"neighborhood": "Penelope Neighbors", "occur_time": "08", "longitude": "-84.453890000000001", "latitude": "33.754440000000002", "occur_date": "06/29/2016", "type": "LARCENY-FROM VEHICLE", "day": "Wed", "street_address": "2061 VERBENA ST NW"}, {"neighborhood": "Penelope Neighbors", "occur_time": "20", "longitude": "-84.451239999999999", "latitude": "33.753039999999999", "occur_date": "07/02/2016", "type": "LARCENY-FROM VEHICLE", "day": "Sat", "street_address": "211 AARON ST NW"}, {"neighborhood": "Penelope Neighbors", "occur_time": "18", "longitude": "-84.454269999999994", "latitude": "33.752229999999997", "occur_date": "07/06/2016", "type": "LARCENY-FROM VEHICLE", "day": "Wed", "street_address": "192 TORRENCE ST NW"}, {"neighborhood": "Penelope Neighbors", "occur_time": "11", "longitude": "-84.448539999999994", "latitude": "33.754089999999998", "occur_date": "07/09/2016", "type": "BURGLARY-RESIDENCE", "day": "Sat", "street_address": "1875 PENELOPE RD NW"}, {"neighborhood": "Penelope Neighbors", "occur_time": "22", "longitude": "-84.451239999999999", "latitude": "33.753039999999999", "occur_date": "07/14/2016", "type": "LARCENY-FROM VEHICLE", "day": "Fri", "street_address": "211 AARON ST NW"}, {"neighborhood": "Penelope Neighbors", "occur_time": "13", "longitude": "-84.452280000000002", "latitude": "33.752670000000002", "occur_date": "08/21/2016", "type": "LARCENY-FROM VEHICLE", "day": "Sun", "street_address": "2040 PENELOPE ST NW"}, {"neighborhood": "Penelope Neighbors", "occur_time": "14", "longitude": "-84.453540000000004", "latitude": "33.754280000000001", "occur_date": "08/28/2016", "type": "LARCENY-FROM VEHICLE", "day": "Sun", "street_address": "2055 VERBENA ST NW"}, {"neighborhood": "Penelope Neighbors", "occur_time": "11", "longitude": "-84.449600000000004", "latitude": "33.754779999999997", "occur_date": "09/12/2016", "type": "LARCENY-FROM VEHICLE", "day": "Mon", "street_address": "294 PENELOPE STREET NW"}, {"neighborhood": "Penelope Neighbors", "occur_time": "11", "longitude": "-84.45187", "latitude": "33.753540000000001", "occur_date": "09/18/2016", "type": "AUTO THEFT", "day": "Sun", "street_address": "238 AARON ST"}, {"neighborhood": "Penelope Neighbors", "occur_time": "10", "longitude": "-84.450739999999996", "latitude": "33.752740000000003", "occur_date": "09/28/2016", "type": "LARCENY-FROM VEHICLE", "day": "Wed", "street_address": "2000 BLAYTON CIR NW"}, {"neighborhood": "Penelope Neighbors", "occur_time": "13", "longitude": "-84.44735", "latitude": "33.754060000000003", "occur_date": "09/28/2016", "type": "AUTO THEFT", "day": "Wed", "street_address": "1839 PENELOPE RD NW"}, {"neighborhood": "Penelope Neighbors", "occur_time": "17", "longitude": "-84.449600000000004", "latitude": "33.754779999999997", "occur_date": "11/10/2016", "type": "ROBBERY-PEDESTRIAN", "day": "Thu", "street_address": "294 PENELOPE DR NW"}, {"neighborhood": "Penelope Neighbors", "occur_time": "17", "longitude": "-84.45429", "latitude": "33.752070000000003", "occur_date": "11/25/2016", "type": "LARCENY-NON VEHICLE", "day": "Unk", "street_address": "186 TORRENCE ST NW"}]