[{"neighborhood": "Princeton Lakes", "occur_time": "17", "longitude": "-84.514259999999993", "latitude": "33.668619999999997", "occur_date": "01/01/2016", "type": "AUTO THEFT", "day": "Fri", "street_address": "3195 ABBEY DR SW"}, {"neighborhood": "Princeton Lakes", "occur_time": "03", "longitude": "-84.510890000000003", "latitude": "33.668660000000003", "occur_date": "01/06/2016", "type": "LARCENY-FROM VEHICLE", "day": "Wed", "street_address": "3108 DAWSON LN SW"}, {"neighborhood": "Princeton Lakes", "occur_time": "09", "longitude": "-84.511219999999994", "latitude": "33.670470000000002", "occur_date": "01/09/2016", "type": "LARCENY-FROM VEHICLE", "day": "Sat", "street_address": "3070 AZLEE PL NW"}, {"neighborhood": "Princeton Lakes", "occur_time": "00", "longitude": "-84.516540000000006", "latitude": "33.662489999999998", "occur_date": "01/12/2016", "type": "BURGLARY-RESIDENCE", "day": "Unk", "street_address": "3282 SAVILLE ST SW"}, {"neighborhood": "Princeton Lakes", "occur_time": "11", "longitude": "-84.510040000000004", "latitude": "33.6569", "occur_date": "01/16/2016", "type": "LARCENY-NON VEHICLE", "day": "Sat", "street_address": "3755 CARMIA DR SW"}, {"neighborhood": "Princeton Lakes", "occur_time": "09", "longitude": "-84.513850000000005", "latitude": "33.66122", "occur_date": "01/18/2016", "type": "BURGLARY-NONRES", "day": "Mon", "street_address": "3886 PRINCETON LAKES WAY SW"}, {"neighborhood": "Princeton Lakes", "occur_time": "12", "longitude": "-84.507869999999997", "latitude": "33.654859999999999", "occur_date": "01/18/2016", "type": "LARCENY-NON VEHICLE", "day": "Mon", "street_address": "3660 CAMP CREEK PKWY SW"}, {"neighborhood": "Princeton Lakes", "occur_time": "07", "longitude": "-84.50994", "latitude": "33.660049999999998", "occur_date": "01/20/2016", "type": "AUTO THEFT", "day": "Wed", "street_address": "3871 REDWINE RD SW"}, {"neighborhood": "Princeton Lakes", "occur_time": "08", "longitude": "-84.512810000000002", "latitude": "33.664259999999999", "occur_date": "01/19/2016", "type": "LARCENY-FROM VEHICLE", "day": "Tue", "street_address": "3656 RAMSEY CLOSE SW"}, {"neighborhood": "Princeton Lakes", "occur_time": "09", "longitude": "-84.509079999999997", "latitude": "33.655709999999999", "occur_date": "01/20/2016", "type": "LARCENY-NON VEHICLE", "day": "Wed", "street_address": "3755 CARMIA DR SW"}, {"neighborhood": "Princeton Lakes", "occur_time": "22", "longitude": "-84.508769999999998", "latitude": "33.657769999999999", "occur_date": "01/16/2016", "type": "LARCENY-FROM VEHICLE", "day": "Sun", "street_address": "3725 PRINCETON LAKES PKWY SW"}, {"neighborhood": "Princeton Lakes", "occur_time": "17", "longitude": "-84.510199999999998", "latitude": "33.655279999999998", "occur_date": "01/21/2016", "type": "LARCENY-NON VEHICLE", "day": "Thu", "street_address": "3730 CARMIA DR SW"}, {"neighborhood": "Princeton Lakes", "occur_time": "22", "longitude": "-84.517330000000001", "latitude": "33.665219999999998", "occur_date": "01/22/2016", "type": "BURGLARY-RESIDENCE", "day": "Fri", "street_address": "3143 WELMINGHAM DR SW"}, {"neighborhood": "Princeton Lakes", "occur_time": "15", "longitude": "-84.510900000000007", "latitude": "33.655729999999998", "occur_date": "01/23/2016", "type": "LARCENY-NON VEHICLE", "day": "Sat", "street_address": "3730 CARMIA DR SW"}, {"neighborhood": "Princeton Lakes", "occur_time": "22", "longitude": "-84.510509999999996", "latitude": "33.658059999999999", "occur_date": "01/23/2016", "type": "LARCENY-FROM VEHICLE", "day": "Sat", "street_address": "3760 PRINCETON LAKES PKWY SW"}, {"neighborhood": "Princeton Lakes", "occur_time": "20", "longitude": "-84.513490000000004", "latitude": "33.662790000000001", "occur_date": "01/24/2016", "type": "LARCENY-FROM VEHICLE", "day": "Mon", "street_address": "3649 VENETIAN PL SW"}, {"neighborhood": "Princeton Lakes", "occur_time": "20", "longitude": "-84.507869999999997", "latitude": "33.654859999999999", "occur_date": "01/25/2016", "type": "LARCENY-FROM VEHICLE", "day": "Mon", "street_address": "3660 CAMP CREEK PKWY SW"}, {"neighborhood": "Princeton Lakes", "occur_time": "11", "longitude": "-84.508769999999998", "latitude": "33.657769999999999", "occur_date": "01/26/2016", "type": "BURGLARY-RESIDENCE", "day": "Tue", "street_address": "3725 PRINCETON LAKES PKWY SW"}, {"neighborhood": "Princeton Lakes", "occur_time": "12", "longitude": "-84.507599999999996", "latitude": "33.656739999999999", "occur_date": "01/29/2016", "type": "LARCENY-FROM VEHICLE", "day": "Fri", "street_address": "3755 CARMIA DR SW"}, {"neighborhood": "Princeton Lakes", "occur_time": "19", "longitude": "-84.510509999999996", "latitude": "33.658059999999999", "occur_date": "01/30/2016", "type": "AUTO THEFT", "day": "Sat", "street_address": "3760 PRINCETON LAKES PKWY SW"}, {"neighborhood": "Princeton Lakes", "occur_time": "07", "longitude": "-84.51858", "latitude": "33.662239999999997", "occur_date": "02/02/2016", "type": "AGG ASSAULT", "day": "Tue", "street_address": "3260 WELMINGHAM DR SW"}, {"neighborhood": "Princeton Lakes", "occur_time": "11", "longitude": "-84.508769999999998", "latitude": "33.657769999999999", "occur_date": "02/08/2016", "type": "BURGLARY-RESIDENCE", "day": "Mon", "street_address": "3725 PRINCETON LAKES PKWY SW"}, {"neighborhood": "Princeton Lakes", "occur_time": "22", "longitude": "-84.508589999999998", "latitude": "33.655000000000001", "occur_date": "02/08/2016", "type": "LARCENY-FROM VEHICLE", "day": "Mon", "street_address": "3670 CAMP CREEK PKWY SW"}, {"neighborhood": "Princeton Lakes", "occur_time": "18", "longitude": "-84.507379999999998", "latitude": "33.654269999999997", "occur_date": "02/11/2016", "type": "LARCENY-NON VEHICLE", "day": "Thu", "street_address": "3620 CAMP CREEK PKWY SW"}, {"neighborhood": "Princeton Lakes", "occur_time": "19", "longitude": "-84.50994", "latitude": "33.660049999999998", "occur_date": "02/07/2016", "type": "LARCENY-NON VEHICLE", "day": "Unk", "street_address": "3871 REDWINE RD SW"}, {"neighborhood": "Princeton Lakes", "occur_time": "19", "longitude": "-84.510900000000007", "latitude": "33.655729999999998", "occur_date": "02/12/2016", "type": "LARCENY-NON VEHICLE", "day": "Fri", "street_address": "3730 CARMIA DR SW @PUBLIX - CARMIA"}, {"neighborhood": "Princeton Lakes", "occur_time": "20", "longitude": "-84.510509999999996", "latitude": "33.658059999999999", "occur_date": "02/12/2016", "type": "AUTO THEFT", "day": "Fri", "street_address": "3760 PRINCETON LAKES PKWY SW"}, {"neighborhood": "Princeton Lakes", "occur_time": "18", "longitude": "-84.510900000000007", "latitude": "33.655729999999998", "occur_date": "02/14/2016", "type": "LARCENY-NON VEHICLE", "day": "Sun", "street_address": "3730 CARMIA DR SW @PUBLIX - CARMIA"}, {"neighborhood": "Princeton Lakes", "occur_time": "15", "longitude": "-84.507869999999997", "latitude": "33.654859999999999", "occur_date": "02/14/2016", "type": "AUTO THEFT", "day": "Sun", "street_address": "3660 CAMPCREEK PKWAY"}, {"neighborhood": "Princeton Lakes", "occur_time": "23", "longitude": "-84.512540000000001", "latitude": "33.662939999999999", "occur_date": "02/15/2016", "type": "ROBBERY-PEDESTRIAN", "day": "Mon", "street_address": "3676 RAMSEY CIR SW"}, {"neighborhood": "Princeton Lakes", "occur_time": "02", "longitude": "-84.510040000000004", "latitude": "33.6569", "occur_date": "02/16/2016", "type": "BURGLARY-NONRES", "day": "Tue", "street_address": "3755 CARMIA DR SW"}, {"neighborhood": "Princeton Lakes", "occur_time": "17", "longitude": "-84.510199999999998", "latitude": "33.655279999999998", "occur_date": "02/20/2016", "type": "LARCENY-NON VEHICLE", "day": "Sat", "street_address": "3730 CARMIA DR SW"}, {"neighborhood": "Princeton Lakes", "occur_time": "19", "longitude": "-84.513180000000006", "latitude": "33.656660000000002", "occur_date": "02/20/2016", "type": "LARCENY-FROM VEHICLE", "day": "Sat", "street_address": "3830 PRINCETON LAKES CT SW"}, {"neighborhood": "Princeton Lakes", "occur_time": "18", "longitude": "-84.507599999999996", "latitude": "33.656739999999999", "occur_date": "02/21/2016", "type": "LARCENY-FROM VEHICLE", "day": "Sun", "street_address": "3755 CARMIA DR SW"}, {"neighborhood": "Princeton Lakes", "occur_time": "15", "longitude": "-84.511340000000004", "latitude": "33.656289999999998", "occur_date": "02/27/2016", "type": "LARCENY-FROM VEHICLE", "day": "Sat", "street_address": "3755 CARMIA DR SW"}, {"neighborhood": "Princeton Lakes", "occur_time": "12", "longitude": "-84.510509999999996", "latitude": "33.658059999999999", "occur_date": "02/26/2016", "type": "AUTO THEFT", "day": "Fri", "street_address": "3760 PRINCETON LAKES PKWY"}, {"neighborhood": "Princeton Lakes", "occur_time": "11", "longitude": "-84.511340000000004", "latitude": "33.656289999999998", "occur_date": "02/20/2016", "type": "LARCENY-FROM VEHICLE", "day": "Unk", "street_address": "3755 CARMIA DR SW"}, {"neighborhood": "Princeton Lakes", "occur_time": "16", "longitude": "-84.510900000000007", "latitude": "33.655729999999998", "occur_date": "03/04/2016", "type": "LARCENY-NON VEHICLE", "day": "Fri", "street_address": "3730 CARMIA DR SW @PUBLIX - CARMIA"}, {"neighborhood": "Princeton Lakes", "occur_time": "14", "longitude": "-84.512460000000004", "latitude": "33.661200000000001", "occur_date": "03/07/2016", "type": "LARCENY-FROM VEHICLE", "day": "Mon", "street_address": "3890 REDWINE RD SW"}, {"neighborhood": "Princeton Lakes", "occur_time": "06", "longitude": "-84.515050000000002", "latitude": "33.669670000000004", "occur_date": "03/08/2016", "type": "AUTO THEFT", "day": "Tue", "street_address": "3073 KENSINGTON CT SW"}, {"neighborhood": "Princeton Lakes", "occur_time": "18", "longitude": "-84.512839999999997", "latitude": "33.65587", "occur_date": "03/10/2016", "type": "LARCENY-FROM VEHICLE", "day": "Thu", "street_address": "3800 PRINCETON LAKES PKWY"}, {"neighborhood": "Princeton Lakes", "occur_time": "06", "longitude": "-84.512370000000004", "latitude": "33.667459999999998", "occur_date": "03/11/2016", "type": "AUTO THEFT", "day": "Fri", "street_address": "3170 ABBEY DR SW"}, {"neighborhood": "Princeton Lakes", "occur_time": "07", "longitude": "-84.51858", "latitude": "33.662170000000003", "occur_date": "03/11/2016", "type": "LARCENY-FROM VEHICLE", "day": "Fri", "street_address": "3264 WELMINGHAM DR SW"}, {"neighborhood": "Princeton Lakes", "occur_time": "22", "longitude": "-84.513090000000005", "latitude": "33.657380000000003", "occur_date": "03/11/2016", "type": "ROBBERY-PEDESTRIAN", "day": "Fri", "street_address": "3833 PRINCETON LAKES CT SW"}, {"neighborhood": "Princeton Lakes", "occur_time": "07", "longitude": "-84.517049999999998", "latitude": "33.664059999999999", "occur_date": "03/14/2016", "type": "AUTO THEFT", "day": "Mon", "street_address": "3256 SAVILLE ST SW"}, {"neighborhood": "Princeton Lakes", "occur_time": "22", "longitude": "-84.507869999999997", "latitude": "33.654859999999999", "occur_date": "03/14/2016", "type": "LARCENY-FROM VEHICLE", "day": "Mon", "street_address": "3660 CAMP CREEK PKWY SW"}, {"neighborhood": "Princeton Lakes", "occur_time": "19", "longitude": "-84.514480000000006", "latitude": "33.663040000000002", "occur_date": "03/15/2016", "type": "ROBBERY-PEDESTRIAN", "day": "Tue", "street_address": "3631 RAMSEY CLOSE SW"}, {"neighborhood": "Princeton Lakes", "occur_time": "04", "longitude": "-84.511780000000002", "latitude": "33.657539999999997", "occur_date": "03/19/2016", "type": "BURGLARY-NONRES", "day": "Sat", "street_address": "3780 PRINCETON LAKES PKWY SW"}, {"neighborhood": "Princeton Lakes", "occur_time": "20", "longitude": "-84.516649999999998", "latitude": "33.661929999999998", "occur_date": "03/19/2016", "type": "BURGLARY-RESIDENCE", "day": "Sat", "street_address": "3293 SAVILLE ST SW"}, {"neighborhood": "Princeton Lakes", "occur_time": "00", "longitude": "-84.510639999999995", "latitude": "33.671950000000002", "occur_date": "03/20/2016", "type": "LARCENY-FROM VEHICLE", "day": "Sun", "street_address": "3086 EASTBROOK TER SW"}, {"neighborhood": "Princeton Lakes", "occur_time": "20", "longitude": "-84.50873", "latitude": "33.669629999999998", "occur_date": "03/19/2016", "type": "LARCENY-FROM VEHICLE", "day": "Sun", "street_address": "3081 CAMDEN CT SW"}, {"neighborhood": "Princeton Lakes", "occur_time": "20", "longitude": "-84.510289999999998", "latitude": "33.657220000000002", "occur_date": "03/25/2016", "type": "AUTO THEFT", "day": "Fri", "street_address": "PRINCETON LAKES PKWY SW / CARMIA DR SW"}, {"neighborhood": "Princeton Lakes", "occur_time": "19", "longitude": "-84.513090000000005", "latitude": "33.657380000000003", "occur_date": "03/26/2016", "type": "LARCENY-FROM VEHICLE", "day": "Sat", "street_address": "3833 PRINCETON LAKES CT SW"}, {"neighborhood": "Princeton Lakes", "occur_time": "00", "longitude": "-84.507869999999997", "latitude": "33.654859999999999", "occur_date": "03/27/2016", "type": "LARCENY-FROM VEHICLE", "day": "Sun", "street_address": "3660 CAMP CREEK PKWY SW"}, {"neighborhood": "Princeton Lakes", "occur_time": "16", "longitude": "-84.510509999999996", "latitude": "33.658059999999999", "occur_date": "03/29/2016", "type": "LARCENY-FROM VEHICLE", "day": "Tue", "street_address": "3760 PRINCETON LAKES PKWY SW"}, {"neighborhood": "Princeton Lakes", "occur_time": "20", "longitude": "-84.510040000000004", "latitude": "33.6569", "occur_date": "03/29/2016", "type": "LARCENY-FROM VEHICLE", "day": "Tue", "street_address": "3755 CARMIA DR SW"}, {"neighborhood": "Princeton Lakes", "occur_time": "21", "longitude": "-84.513090000000005", "latitude": "33.657380000000003", "occur_date": "03/29/2016", "type": "LARCENY-FROM VEHICLE", "day": "Wed", "street_address": "3833 PRINCETON LAKES CT SW"}, {"neighborhood": "Princeton Lakes", "occur_time": "07", "longitude": "-84.511380000000003", "latitude": "33.663409999999999", "occur_date": "04/01/2016", "type": "AUTO THEFT", "day": "Fri", "street_address": "3722 RAMSEY CIR SW"}, {"neighborhood": "Princeton Lakes", "occur_time": "09", "longitude": "-84.515110000000007", "latitude": "33.661230000000003", "occur_date": "04/01/2016", "type": "BURGLARY-RESIDENCE", "day": "Fri", "street_address": "3260 WELLINGTON WALK SW"}, {"neighborhood": "Princeton Lakes", "occur_time": "14", "longitude": "-84.510040000000004", "latitude": "33.6569", "occur_date": "04/03/2016", "type": "LARCENY-FROM VEHICLE", "day": "Sun", "street_address": "3755 CARMIA DR SW"}, {"neighborhood": "Princeton Lakes", "occur_time": "22", "longitude": "-84.512810000000002", "latitude": "33.662230000000001", "occur_date": "03/31/2016", "type": "LARCENY-FROM VEHICLE", "day": "Thu", "street_address": "3686 RAMSEY CIR SW;"}, {"neighborhood": "Princeton Lakes", "occur_time": "02", "longitude": "-84.510040000000004", "latitude": "33.6569", "occur_date": "04/05/2016", "type": "BURGLARY-NONRES", "day": "Tue", "street_address": "3755 CARMIA DR SW"}, {"neighborhood": "Princeton Lakes", "occur_time": "15", "longitude": "-84.510509999999996", "latitude": "33.658059999999999", "occur_date": "04/06/2016", "type": "LARCENY-FROM VEHICLE", "day": "Wed", "street_address": "3760 PRINCETON LAKES PKWY SW"}, {"neighborhood": "Princeton Lakes", "occur_time": "23", "longitude": "-84.513090000000005", "latitude": "33.657380000000003", "occur_date": "04/07/2016", "type": "LARCENY-FROM VEHICLE", "day": "Fri", "street_address": "3833 PRINCETON LAKES CT SW"}, {"neighborhood": "Princeton Lakes", "occur_time": "20", "longitude": "-84.509569999999997", "latitude": "33.657629999999997", "occur_date": "04/09/2016", "type": "AUTO THEFT", "day": "Sat", "street_address": "3760 PRINCETON LAKES PKWY"}, {"neighborhood": "Princeton Lakes", "occur_time": "13", "longitude": "-84.507869999999997", "latitude": "33.654859999999999", "occur_date": "04/11/2016", "type": "LARCENY-NON VEHICLE", "day": "Mon", "street_address": "3660 CAMP CREEK PKWY SW"}, {"neighborhood": "Princeton Lakes", "occur_time": "13", "longitude": "-84.507869999999997", "latitude": "33.654859999999999", "occur_date": "04/12/2016", "type": "LARCENY-FROM VEHICLE", "day": "Tue", "street_address": "3660 CAMP CREEK PKWY SW"}, {"neighborhood": "Princeton Lakes", "occur_time": "19", "longitude": "-84.510040000000004", "latitude": "33.6569", "occur_date": "04/18/2016", "type": "LARCENY-NON VEHICLE", "day": "Mon", "street_address": "3755 CARMIA DR SW"}, {"neighborhood": "Princeton Lakes", "occur_time": "09", "longitude": "-84.517330000000001", "latitude": "33.665219999999998", "occur_date": "04/20/2016", "type": "BURGLARY-RESIDENCE", "day": "Wed", "street_address": "3143 WELMINGHAM DR SW"}, {"neighborhood": "Princeton Lakes", "occur_time": "20", "longitude": "-84.509990000000002", "latitude": "33.656529999999997", "occur_date": "04/20/2016", "type": "LARCENY-FROM VEHICLE", "day": "Wed", "street_address": "3755 CARMIA DR"}, {"neighborhood": "Princeton Lakes", "occur_time": "17", "longitude": "-84.515469999999993", "latitude": "33.664400000000001", "occur_date": "04/22/2016", "type": "BURGLARY-RESIDENCE", "day": "Fri", "street_address": "3249 TELFORD TER"}, {"neighborhood": "Princeton Lakes", "occur_time": "16", "longitude": "-84.510509999999996", "latitude": "33.658059999999999", "occur_date": "04/23/2016", "type": "LARCENY-FROM VEHICLE", "day": "Sat", "street_address": "3760 PRINCETON LAKES PKWY SW;"}, {"neighborhood": "Princeton Lakes", "occur_time": "19", "longitude": "-84.513090000000005", "latitude": "33.657380000000003", "occur_date": "04/23/2016", "type": "LARCENY-FROM VEHICLE", "day": "Sun", "street_address": "3833 PRINCETON LAKES CT SW"}, {"neighborhood": "Princeton Lakes", "occur_time": "12", "longitude": "-84.510040000000004", "latitude": "33.6569", "occur_date": "04/24/2016", "type": "LARCENY-FROM VEHICLE", "day": "Sun", "street_address": "3755 CARMIA DR SW"}, {"neighborhood": "Princeton Lakes", "occur_time": "13", "longitude": "-84.510509999999996", "latitude": "33.658059999999999", "occur_date": "04/24/2016", "type": "LARCENY-FROM VEHICLE", "day": "Sun", "street_address": "3760 PRINCETON LAKES PKWY SW"}, {"neighborhood": "Princeton Lakes", "occur_time": "14", "longitude": "-84.509079999999997", "latitude": "33.655709999999999", "occur_date": "04/21/2016", "type": "LARCENY-NON VEHICLE", "day": "Unk", "street_address": "3755 CARMIA DR SW"}, {"neighborhood": "Princeton Lakes", "occur_time": "21", "longitude": "-84.507599999999996", "latitude": "33.656739999999999", "occur_date": "04/25/2016", "type": "LARCENY-FROM VEHICLE", "day": "Mon", "street_address": "3755 CARMIA DR SW"}, {"neighborhood": "Princeton Lakes", "occur_time": "00", "longitude": "-84.512910000000005", "latitude": "33.663170000000001", "occur_date": "04/26/2016", "type": "BURGLARY-RESIDENCE", "day": "Tue", "street_address": "3657 VENETIAN PL SW"}, {"neighborhood": "Princeton Lakes", "occur_time": "08", "longitude": "-84.510509999999996", "latitude": "33.658059999999999", "occur_date": "04/27/2016", "type": "ROBBERY-COMMERCIAL", "day": "Wed", "street_address": "3760 PRINCETON LAKE PKWY"}, {"neighborhood": "Princeton Lakes", "occur_time": "13", "longitude": "-84.507869999999997", "latitude": "33.654859999999999", "occur_date": "05/01/2016", "type": "LARCENY-FROM VEHICLE", "day": "Sun", "street_address": "3660 CAMP CREEK PKWY PKWY"}, {"neighborhood": "Princeton Lakes", "occur_time": "14", "longitude": "-84.510040000000004", "latitude": "33.6569", "occur_date": "05/01/2016", "type": "LARCENY-NON VEHICLE", "day": "Sun", "street_address": "3755 CARMIA DR SW"}, {"neighborhood": "Princeton Lakes", "occur_time": "00", "longitude": "-84.507599999999996", "latitude": "33.656739999999999", "occur_date": "05/02/2016", "type": "LARCENY-FROM VEHICLE", "day": "Mon", "street_address": "3755 CARMIA DR SW"}, {"neighborhood": "Princeton Lakes", "occur_time": "15", "longitude": "-84.508769999999998", "latitude": "33.657769999999999", "occur_date": "04/28/2016", "type": "BURGLARY-RESIDENCE", "day": "Unk", "street_address": "3725 PRINCETON LAKES PKWY SW"}, {"neighborhood": "Princeton Lakes", "occur_time": "15", "longitude": "-84.509079999999997", "latitude": "33.655709999999999", "occur_date": "05/04/2016", "type": "AUTO THEFT", "day": "Wed", "street_address": "3755 CARMIA DR SW"}, {"neighborhood": "Princeton Lakes", "occur_time": "22", "longitude": "-84.509659999999997", "latitude": "33.672690000000003", "occur_date": "05/05/2016", "type": "AUTO THEFT", "day": "Fri", "street_address": "3047 DAWSON LN SW"}, {"neighborhood": "Princeton Lakes", "occur_time": "19", "longitude": "-84.509079999999997", "latitude": "33.655709999999999", "occur_date": "05/06/2016", "type": "LARCENY-NON VEHICLE", "day": "Fri", "street_address": "3755 CARMIA DR SW"}, {"neighborhood": "Princeton Lakes", "occur_time": "20", "longitude": "-84.507869999999997", "latitude": "33.654859999999999", "occur_date": "05/06/2016", "type": "LARCENY-FROM VEHICLE", "day": "Fri", "street_address": "3660 CAMP CREEK PKWY SW"}, {"neighborhood": "Princeton Lakes", "occur_time": "11", "longitude": "-84.508769999999998", "latitude": "33.657769999999999", "occur_date": "05/02/2016", "type": "LARCENY-NON VEHICLE", "day": "Mon", "street_address": "3725 PRINCETON LAKES PKWY SW"}, {"neighborhood": "Princeton Lakes", "occur_time": "10", "longitude": "-84.509079999999997", "latitude": "33.655709999999999", "occur_date": "05/07/2016", "type": "LARCENY-NON VEHICLE", "day": "Sat", "street_address": "3755 CARMIA DR SW"}, {"neighborhood": "Princeton Lakes", "occur_time": "07", "longitude": "-84.509079999999997", "latitude": "33.655709999999999", "occur_date": "05/09/2016", "type": "LARCENY-FROM VEHICLE", "day": "Unk", "street_address": "3755 CARMIA DR SW"}, {"neighborhood": "Princeton Lakes", "occur_time": "14", "longitude": "-84.509079999999997", "latitude": "33.655709999999999", "occur_date": "05/11/2016", "type": "AUTO THEFT", "day": "Wed", "street_address": "3755 CARMIA DR SW"}, {"neighborhood": "Princeton Lakes", "occur_time": "07", "longitude": "-84.509079999999997", "latitude": "33.655709999999999", "occur_date": "05/12/2016", "type": "LARCENY-NON VEHICLE", "day": "Thu", "street_address": "3755 CARMIA DR SW"}, {"neighborhood": "Princeton Lakes", "occur_time": "11", "longitude": "-84.511949999999999", "latitude": "33.655380000000001", "occur_date": "05/12/2016", "type": "ROBBERY-PEDESTRIAN", "day": "Thu", "street_address": "3820 CAMP CREEK PKWY SW"}, {"neighborhood": "Princeton Lakes", "occur_time": "17", "longitude": "-84.510729999999995", "latitude": "33.656359999999999", "occur_date": "05/14/2016", "type": "LARCENY-NON VEHICLE", "day": "Sat", "street_address": "3730 CARMIA DR SW @PUBLIX - CARMIA"}, {"neighborhood": "Princeton Lakes", "occur_time": "13", "longitude": "-84.510220000000004", "latitude": "33.654879999999999", "occur_date": "05/15/2016", "type": "LARCENY-FROM VEHICLE", "day": "Sun", "street_address": "3755 CARMIA DR SW"}, {"neighborhood": "Princeton Lakes", "occur_time": "22", "longitude": "-84.507869999999997", "latitude": "33.654859999999999", "occur_date": "05/15/2016", "type": "LARCENY-FROM VEHICLE", "day": "Sun", "street_address": "3660 CAMP CREEK PKWY SW"}, {"neighborhood": "Princeton Lakes", "occur_time": "07", "longitude": "-84.516040000000004", "latitude": "33.662050000000001", "occur_date": "05/16/2016", "type": "AUTO THEFT", "day": "Mon", "street_address": "3610 TINSLEY WAY SW"}, {"neighborhood": "Princeton Lakes", "occur_time": "02", "longitude": "-84.510729999999995", "latitude": "33.656359999999999", "occur_date": "05/16/2016", "type": "AUTO THEFT", "day": "Mon", "street_address": "3730 CARMIA DR SW @PUBLIX - CARMIA"}, {"neighborhood": "Princeton Lakes", "occur_time": "17", "longitude": "-84.510040000000004", "latitude": "33.6569", "occur_date": "05/20/2016", "type": "LARCENY-FROM VEHICLE", "day": "Fri", "street_address": "3755 CARMIA DR SW"}, {"neighborhood": "Princeton Lakes", "occur_time": "13", "longitude": "-84.508589999999998", "latitude": "33.655000000000001", "occur_date": "05/28/2016", "type": "LARCENY-FROM VEHICLE", "day": "Sat", "street_address": "3670 CAMP CREEK PKWY"}, {"neighborhood": "Princeton Lakes", "occur_time": "11", "longitude": "-84.508470000000003", "latitude": "33.659080000000003", "occur_date": "05/30/2016", "type": "AGG ASSAULT", "day": "Mon", "street_address": "3725 PRINCETON LAKES PKWY SW"}, {"neighborhood": "Princeton Lakes", "occur_time": "12", "longitude": "-84.510900000000007", "latitude": "33.655729999999998", "occur_date": "05/31/2016", "type": "LARCENY-NON VEHICLE", "day": "Tue", "street_address": "3730 CARMIA DR SW @PUBLIX - CARMIA"}, {"neighborhood": "Princeton Lakes", "occur_time": "16", "longitude": "-84.510729999999995", "latitude": "33.656359999999999", "occur_date": "05/26/2016", "type": "AUTO THEFT", "day": "Unk", "street_address": "3730 CARMIA DR SW @PUBLIX - CARMIA"}, {"neighborhood": "Princeton Lakes", "occur_time": "15", "longitude": "-84.516099999999994", "latitude": "33.665419999999997", "occur_date": "05/31/2016", "type": "BURGLARY-RESIDENCE", "day": "Tue", "street_address": "3226 SAVILLE ST SW"}, {"neighborhood": "Princeton Lakes", "occur_time": "11", "longitude": "-84.510040000000004", "latitude": "33.6569", "occur_date": "06/05/2016", "type": "LARCENY-FROM VEHICLE", "day": "Sun", "street_address": "3755 CARMIA DR SW"}, {"neighborhood": "Princeton Lakes", "occur_time": "12", "longitude": "-84.513030000000001", "latitude": "33.664279999999998", "occur_date": "06/02/2016", "type": "LARCENY-NON VEHICLE", "day": "Unk", "street_address": "3654 RAMSEY CLOSE SW"}, {"neighborhood": "Princeton Lakes", "occur_time": "11", "longitude": "-84.513090000000005", "latitude": "33.657380000000003", "occur_date": "06/11/2016", "type": "LARCENY-FROM VEHICLE", "day": "Sat", "street_address": "3833 PRINCETON LAKES CT SW"}, {"neighborhood": "Princeton Lakes", "occur_time": "22", "longitude": "-84.516570000000002", "latitude": "33.661819999999999", "occur_date": "06/12/2016", "type": "LARCENY-FROM VEHICLE", "day": "Mon", "street_address": "3295 SAVILLE ST SW"}, {"neighborhood": "Princeton Lakes", "occur_time": "12", "longitude": "-84.509979999999999", "latitude": "33.66986", "occur_date": "06/13/2016", "type": "LARCENY-FROM VEHICLE", "day": "Mon", "street_address": "3087 DAWSON LN SW"}, {"neighborhood": "Princeton Lakes", "occur_time": "16", "longitude": "-84.510509999999996", "latitude": "33.658059999999999", "occur_date": "06/14/2016", "type": "LARCENY-FROM VEHICLE", "day": "Tue", "street_address": "3760 PRINCETON LAKES PKWY SW"}, {"neighborhood": "Princeton Lakes", "occur_time": "11", "longitude": "-84.512870000000007", "latitude": "33.6661", "occur_date": "06/16/2016", "type": "LARCENY-FROM VEHICLE", "day": "Thu", "street_address": "3108 GARDEN WALK SW"}, {"neighborhood": "Princeton Lakes", "occur_time": "07", "longitude": "-84.509079999999997", "latitude": "33.655709999999999", "occur_date": "06/17/2016", "type": "LARCENY-FROM VEHICLE", "day": "Fri", "street_address": "3755 CARMIA DR SW"}, {"neighborhood": "Princeton Lakes", "occur_time": "19", "longitude": "-84.510900000000007", "latitude": "33.655729999999998", "occur_date": "06/19/2016", "type": "LARCENY-NON VEHICLE", "day": "Sun", "street_address": "3730 CARMIA DR SW @PUBLIX - CARMIA"}, {"neighborhood": "Princeton Lakes", "occur_time": "14", "longitude": "-84.510220000000004", "latitude": "33.654879999999999", "occur_date": "06/20/2016", "type": "AUTO THEFT", "day": "Mon", "street_address": "3730 CARMIA DR SW"}, {"neighborhood": "Princeton Lakes", "occur_time": "19", "longitude": "-84.507869999999997", "latitude": "33.654859999999999", "occur_date": "06/18/2016", "type": "AUTO THEFT", "day": "Sat", "street_address": "3660 CAMP CREEK PKWY SW"}, {"neighborhood": "Princeton Lakes", "occur_time": "11", "longitude": "-84.507869999999997", "latitude": "33.654859999999999", "occur_date": "06/23/2016", "type": "LARCENY-FROM VEHICLE", "day": "Thu", "street_address": "3660 CAMP CREEK PKWY SW"}, {"neighborhood": "Princeton Lakes", "occur_time": "13", "longitude": "-84.510900000000007", "latitude": "33.655729999999998", "occur_date": "06/25/2016", "type": "LARCENY-FROM VEHICLE", "day": "Sat", "street_address": "3730 CARMIA DR SW @PUBLIX - CARMIA"}, {"neighborhood": "Princeton Lakes", "occur_time": "20", "longitude": "-84.507869999999997", "latitude": "33.654859999999999", "occur_date": "06/25/2016", "type": "LARCENY-FROM VEHICLE", "day": "Sat", "street_address": "3660 CAMP CREEK PKWY SW"}, {"neighborhood": "Princeton Lakes", "occur_time": "13", "longitude": "-84.509079999999997", "latitude": "33.655709999999999", "occur_date": "06/26/2016", "type": "LARCENY-NON VEHICLE", "day": "Sun", "street_address": "3755 CARMIA DR SW"}, {"neighborhood": "Princeton Lakes", "occur_time": "21", "longitude": "-84.508769999999998", "latitude": "33.657769999999999", "occur_date": "06/27/2016", "type": "LARCENY-FROM VEHICLE", "day": "Tue", "street_address": "3725 PRINCETON LAKES PKWY SW"}, {"neighborhood": "Princeton Lakes", "occur_time": "01", "longitude": "-84.508769999999998", "latitude": "33.657769999999999", "occur_date": "06/28/2016", "type": "LARCENY-FROM VEHICLE", "day": "Tue", "street_address": "3725 PRINCETON LAKES PKWY SW"}, {"neighborhood": "Princeton Lakes", "occur_time": "20", "longitude": "-84.510040000000004", "latitude": "33.6569", "occur_date": "06/26/2016", "type": "LARCENY-NON VEHICLE", "day": "Mon", "street_address": "3755 CARMIA DR SW"}, {"neighborhood": "Princeton Lakes", "occur_time": "07", "longitude": "-84.511600000000001", "latitude": "33.669350000000001", "occur_date": "07/03/2016", "type": "LARCENY-FROM VEHICLE", "day": "Sun", "street_address": "3150 DELVIEW WAY"}, {"neighborhood": "Princeton Lakes", "occur_time": "19", "longitude": "-84.510040000000004", "latitude": "33.6569", "occur_date": "07/02/2016", "type": "LARCENY-FROM VEHICLE", "day": "Sun", "street_address": "3755 CARMIA DR SW"}, {"neighborhood": "Princeton Lakes", "occur_time": "12", "longitude": "-84.510900000000007", "latitude": "33.655729999999998", "occur_date": "07/03/2016", "type": "LARCENY-NON VEHICLE", "day": "Sun", "street_address": "3730 CARMIA DR SW @PUBLIX - CARMIA"}, {"neighborhood": "Princeton Lakes", "occur_time": "15", "longitude": "-84.510040000000004", "latitude": "33.6569", "occur_date": "07/03/2016", "type": "LARCENY-NON VEHICLE", "day": "Sun", "street_address": "3755 CARMIA DR SW"}, {"neighborhood": "Princeton Lakes", "occur_time": "20", "longitude": "-84.508589999999998", "latitude": "33.655000000000001", "occur_date": "07/04/2016", "type": "LARCENY-FROM VEHICLE", "day": "Mon", "street_address": "3670 CAMP CREEK PKWY SW"}, {"neighborhood": "Princeton Lakes", "occur_time": "05", "longitude": "-84.513159999999999", "latitude": "33.656840000000003", "occur_date": "06/25/2016", "type": "AUTO THEFT", "day": "Unk", "street_address": "3833 PRINCETON LAKES CT SW"}, {"neighborhood": "Princeton Lakes", "occur_time": "18", "longitude": "-84.513090000000005", "latitude": "33.657380000000003", "occur_date": "07/06/2016", "type": "LARCENY-FROM VEHICLE", "day": "Thu", "street_address": "3833 PRINCETON LAKES CT SW"}, {"neighborhood": "Princeton Lakes", "occur_time": "13", "longitude": "-84.509079999999997", "latitude": "33.655709999999999", "occur_date": "07/07/2016", "type": "LARCENY-FROM VEHICLE", "day": "Thu", "street_address": "3755 CARMIA DR SW"}, {"neighborhood": "Princeton Lakes", "occur_time": "13", "longitude": "-84.513180000000006", "latitude": "33.656660000000002", "occur_date": "07/07/2016", "type": "LARCENY-FROM VEHICLE", "day": "Thu", "street_address": "3830 PRINCETON LAKES CT SW"}, {"neighborhood": "Princeton Lakes", "occur_time": "13", "longitude": "-84.509079999999997", "latitude": "33.655709999999999", "occur_date": "07/09/2016", "type": "LARCENY-NON VEHICLE", "day": "Sun", "street_address": "3755 CARMIA DR SW"}, {"neighborhood": "Princeton Lakes", "occur_time": "20", "longitude": "-84.510509999999996", "latitude": "33.658059999999999", "occur_date": "07/10/2016", "type": "LARCENY-FROM VEHICLE", "day": "Sun", "street_address": "3760 PRINCETON LAKES PKWY SW"}, {"neighborhood": "Princeton Lakes", "occur_time": "19", "longitude": "-84.513090000000005", "latitude": "33.657380000000003", "occur_date": "07/11/2016", "type": "LARCENY-FROM VEHICLE", "day": "Mon", "street_address": "3833 PRINCETON LAKES CT SW"}, {"neighborhood": "Princeton Lakes", "occur_time": "18", "longitude": "-84.509079999999997", "latitude": "33.655709999999999", "occur_date": "07/11/2016", "type": "LARCENY-FROM VEHICLE", "day": "Mon", "street_address": "3755 CARMIA DR SW"}, {"neighborhood": "Princeton Lakes", "occur_time": "18", "longitude": "-84.508759999999995", "latitude": "33.659930000000003", "occur_date": "07/12/2016", "type": "LARCENY-FROM VEHICLE", "day": "Tue", "street_address": "3830 PRINCETON LAKES PKWY SW"}, {"neighborhood": "Princeton Lakes", "occur_time": "18", "longitude": "-84.508589999999998", "latitude": "33.655000000000001", "occur_date": "07/12/2016", "type": "LARCENY-FROM VEHICLE", "day": "Tue", "street_address": "3670 CAMP CREEK PKWY SW"}, {"neighborhood": "Princeton Lakes", "occur_time": "23", "longitude": "-84.508589999999998", "latitude": "33.655000000000001", "occur_date": "07/13/2016", "type": "AUTO THEFT", "day": "Thu", "street_address": "3670 CAMP CREEK PKWY SW"}, {"neighborhood": "Princeton Lakes", "occur_time": "12", "longitude": "-84.513180000000006", "latitude": "33.656660000000002", "occur_date": "07/16/2016", "type": "LARCENY-FROM VEHICLE", "day": "Sat", "street_address": "3830 PRINCETON LAKES CT SW"}, {"neighborhood": "Princeton Lakes", "occur_time": "12", "longitude": "-84.510220000000004", "latitude": "33.654879999999999", "occur_date": "07/16/2016", "type": "LARCENY-NON VEHICLE", "day": "Sat", "street_address": "3755 CARMIA DR SW"}, {"neighborhood": "Princeton Lakes", "occur_time": "13", "longitude": "-84.515529999999998", "latitude": "33.667670000000001", "occur_date": "07/16/2016", "type": "AUTO THEFT", "day": "Sat", "street_address": "3503 REDWINE PKWY SW"}, {"neighborhood": "Princeton Lakes", "occur_time": "08", "longitude": "-84.508769999999998", "latitude": "33.657769999999999", "occur_date": "07/17/2016", "type": "BURGLARY-RESIDENCE", "day": "Sun", "street_address": "3725 PRINCETON LAKES PKWY SW"}, {"neighborhood": "Princeton Lakes", "occur_time": "17", "longitude": "-84.512309999999999", "latitude": "33.669150000000002", "occur_date": "07/18/2016", "type": "BURGLARY-RESIDENCE", "day": "Mon", "street_address": "3161 DALEVIEW WAY SW"}, {"neighborhood": "Princeton Lakes", "occur_time": "19", "longitude": "-84.509079999999997", "latitude": "33.655709999999999", "occur_date": "07/19/2016", "type": "LARCENY-FROM VEHICLE", "day": "Tue", "street_address": "3755 CARMIA DR SW"}, {"neighborhood": "Princeton Lakes", "occur_time": "22", "longitude": "-84.510040000000004", "latitude": "33.6569", "occur_date": "07/20/2016", "type": "LARCENY-FROM VEHICLE", "day": "Wed", "street_address": "3755 CARMIA DR SW"}, {"neighborhood": "Princeton Lakes", "occur_time": "16", "longitude": "-84.508589999999998", "latitude": "33.655000000000001", "occur_date": "07/21/2016", "type": "LARCENY-FROM VEHICLE", "day": "Thu", "street_address": "3670 CAMP CREEK PKWY SW"}, {"neighborhood": "Princeton Lakes", "occur_time": "00", "longitude": "-84.513090000000005", "latitude": "33.657380000000003", "occur_date": "07/23/2016", "type": "LARCENY-FROM VEHICLE", "day": "Sat", "street_address": "3833 PRINCETON LAKES CT SW"}, {"neighborhood": "Princeton Lakes", "occur_time": "13", "longitude": "-84.510509999999996", "latitude": "33.658059999999999", "occur_date": "07/24/2016", "type": "LARCENY-FROM VEHICLE", "day": "Sun", "street_address": "3760 PRINCETON LAKE PKWY SW"}, {"neighborhood": "Princeton Lakes", "occur_time": "08", "longitude": "-84.507379999999998", "latitude": "33.654269999999997", "occur_date": "07/25/2016", "type": "LARCENY-FROM VEHICLE", "day": "Mon", "street_address": "3620 CAMP CREEK PKWY SW"}, {"neighborhood": "Princeton Lakes", "occur_time": "16", "longitude": "-84.509079999999997", "latitude": "33.655709999999999", "occur_date": "07/25/2016", "type": "LARCENY-NON VEHICLE", "day": "Mon", "street_address": "3755 CARMIA DR SW"}, {"neighborhood": "Princeton Lakes", "occur_time": "14", "longitude": "-84.510509999999996", "latitude": "33.658059999999999", "occur_date": "07/26/2016", "type": "LARCENY-FROM VEHICLE", "day": "Tue", "street_address": "3760 PRINCETON LAKES PKWY SW"}, {"neighborhood": "Princeton Lakes", "occur_time": "13", "longitude": "-84.507050000000007", "latitude": "33.658259999999999", "occur_date": "07/27/2016", "type": "AUTO THEFT", "day": "Wed", "street_address": "3725 PRINCETON LAKES PKWY SW"}, {"neighborhood": "Princeton Lakes", "occur_time": "14", "longitude": "-84.510509999999996", "latitude": "33.658059999999999", "occur_date": "07/28/2016", "type": "LARCENY-FROM VEHICLE", "day": "Thu", "street_address": "3760 PRINCETON LAKES PKWY SW"}, {"neighborhood": "Princeton Lakes", "occur_time": "15", "longitude": "-84.509889999999999", "latitude": "33.669609999999999", "occur_date": "07/28/2016", "type": "LARCENY-FROM VEHICLE", "day": "Thu", "street_address": "3086  DAWSON LN SW"}, {"neighborhood": "Princeton Lakes", "occur_time": "22", "longitude": "-84.507869999999997", "latitude": "33.654859999999999", "occur_date": "07/29/2016", "type": "LARCENY-FROM VEHICLE", "day": "Fri", "street_address": "3660 CAMP CREEK PKWY SW"}, {"neighborhood": "Princeton Lakes", "occur_time": "05", "longitude": "-84.518789999999996", "latitude": "33.661909999999999", "occur_date": "07/29/2016", "type": "LARCENY-FROM VEHICLE", "day": "Fri", "street_address": "3277 WELMINGHAM DR SW;"}, {"neighborhood": "Princeton Lakes", "occur_time": "13", "longitude": "-84.510900000000007", "latitude": "33.655729999999998", "occur_date": "07/30/2016", "type": "LARCENY-NON VEHICLE", "day": "Sat", "street_address": "3730 CARMIA DR SW"}, {"neighborhood": "Princeton Lakes", "occur_time": "13", "longitude": "-84.516859999999994", "latitude": "33.662799999999997", "occur_date": "07/30/2016", "type": "BURGLARY-RESIDENCE", "day": "Sat", "street_address": "3276 SAVILLE ST SW"}, {"neighborhood": "Princeton Lakes", "occur_time": "11", "longitude": "-84.518810000000002", "latitude": "33.664360000000002", "occur_date": "07/30/2016", "type": "BURGLARY-RESIDENCE", "day": "Sat", "street_address": "3121 BENNIGER TRCE SW"}, {"neighborhood": "Princeton Lakes", "occur_time": "06", "longitude": "-84.508769999999998", "latitude": "33.657769999999999", "occur_date": "08/01/2016", "type": "LARCENY-FROM VEHICLE", "day": "Mon", "street_address": "3725 PRINCETON LAKES PKWY SW"}, {"neighborhood": "Princeton Lakes", "occur_time": "22", "longitude": "-84.508589999999998", "latitude": "33.655000000000001", "occur_date": "08/03/2016", "type": "AUTO THEFT", "day": "Wed", "street_address": "3670 CAMP CREEK PKWY SW"}, {"neighborhood": "Princeton Lakes", "occur_time": "10", "longitude": "-84.510509999999996", "latitude": "33.658059999999999", "occur_date": "08/05/2016", "type": "LARCENY-FROM VEHICLE", "day": "Fri", "street_address": "3760 PRINCETON LAKES PKWY SW;"}, {"neighborhood": "Princeton Lakes", "occur_time": "16", "longitude": "-84.510900000000007", "latitude": "33.655729999999998", "occur_date": "08/06/2016", "type": "LARCENY-NON VEHICLE", "day": "Sat", "street_address": "3730 CARMIA DR SW @PUBLIX - CARMIA"}, {"neighborhood": "Princeton Lakes", "occur_time": "17", "longitude": "-84.510509999999996", "latitude": "33.658059999999999", "occur_date": "08/06/2016", "type": "LARCENY-FROM VEHICLE", "day": "Sat", "street_address": "3760 PRINCETON LAKES PKWY SW"}, {"neighborhood": "Princeton Lakes", "occur_time": "16", "longitude": "-84.508870000000002", "latitude": "33.654609999999998", "occur_date": "08/07/2016", "type": "LARCENY-FROM VEHICLE", "day": "Sun", "street_address": "3660 CAMP CREEK PKWY SW"}, {"neighborhood": "Princeton Lakes", "occur_time": "10", "longitude": "-84.507379999999998", "latitude": "33.654269999999997", "occur_date": "08/08/2016", "type": "LARCENY-FROM VEHICLE", "day": "Mon", "street_address": "3620 CAMP CREEK PKWY SW"}, {"neighborhood": "Princeton Lakes", "occur_time": "00", "longitude": "-84.513080000000002", "latitude": "33.668300000000002", "occur_date": "08/04/2016", "type": "LARCENY-FROM VEHICLE", "day": "Thu", "street_address": "3176 ABBEY DR SW"}, {"neighborhood": "Princeton Lakes", "occur_time": "19", "longitude": "-84.510220000000004", "latitude": "33.654879999999999", "occur_date": "08/10/2016", "type": "AUTO THEFT", "day": "Wed", "street_address": "3755 CARMIA DR SW"}, {"neighborhood": "Princeton Lakes", "occur_time": "10", "longitude": "-84.509079999999997", "latitude": "33.655709999999999", "occur_date": "08/10/2016", "type": "LARCENY-FROM VEHICLE", "day": "Wed", "street_address": "3755 CARMIA DR SW"}, {"neighborhood": "Princeton Lakes", "occur_time": "21", "longitude": "-84.509079999999997", "latitude": "33.655709999999999", "occur_date": "08/16/2016", "type": "LARCENY-FROM VEHICLE", "day": "Tue", "street_address": "3755 CARMIA DR SW"}, {"neighborhood": "Princeton Lakes", "occur_time": "12", "longitude": "-84.510199999999998", "latitude": "33.655279999999998", "occur_date": "08/17/2016", "type": "LARCENY-NON VEHICLE", "day": "Wed", "street_address": "3730 CARMIA DR SW"}, {"neighborhood": "Princeton Lakes", "occur_time": "08", "longitude": "-84.510040000000004", "latitude": "33.6569", "occur_date": "08/08/2016", "type": "LARCENY-NON VEHICLE", "day": "Mon", "street_address": "3755 CARMIA DR SW"}, {"neighborhood": "Princeton Lakes", "occur_time": "17", "longitude": "-84.507869999999997", "latitude": "33.654859999999999", "occur_date": "08/19/2016", "type": "LARCENY-FROM VEHICLE", "day": "Fri", "street_address": "3660 CAMP CREEK PKWY SW"}, {"neighborhood": "Princeton Lakes", "occur_time": "18", "longitude": "-84.516930000000002", "latitude": "33.664929999999998", "occur_date": "08/18/2016", "type": "LARCENY-FROM VEHICLE", "day": "Fri", "street_address": "3241 SAVILLE ST SW"}, {"neighborhood": "Princeton Lakes", "occur_time": "21", "longitude": "-84.510900000000007", "latitude": "33.655729999999998", "occur_date": "08/19/2016", "type": "LARCENY-FROM VEHICLE", "day": "Fri", "street_address": "3730 CARMIA DR SW @PUBLIX - CARMIA"}, {"neighborhood": "Princeton Lakes", "occur_time": "16", "longitude": "-84.508870000000002", "latitude": "33.654609999999998", "occur_date": "08/19/2016", "type": "LARCENY-FROM VEHICLE", "day": "Fri", "street_address": "3730 CAMP CREEK PKWY SW"}, {"neighborhood": "Princeton Lakes", "occur_time": "14", "longitude": "-84.513090000000005", "latitude": "33.657380000000003", "occur_date": "08/20/2016", "type": "LARCENY-FROM VEHICLE", "day": "Sat", "street_address": "3833 PRINCETON LAKES CT SW"}, {"neighborhood": "Princeton Lakes", "occur_time": "16", "longitude": "-84.510220000000004", "latitude": "33.654879999999999", "occur_date": "08/20/2016", "type": "LARCENY-FROM VEHICLE", "day": "Sat", "street_address": "CAMP CREEK PKWY SW / CARMIA DR SW"}, {"neighborhood": "Princeton Lakes", "occur_time": "01", "longitude": "-84.509280000000004", "latitude": "33.671340000000001", "occur_date": "08/21/2016", "type": "AUTO THEFT", "day": "Sun", "street_address": "3071 DAWSON LN SW"}, {"neighborhood": "Princeton Lakes", "occur_time": "17", "longitude": "-84.509079999999997", "latitude": "33.655709999999999", "occur_date": "08/21/2016", "type": "LARCENY-FROM VEHICLE", "day": "Sun", "street_address": "3755 CARMIA DR SW"}, {"neighborhood": "Princeton Lakes", "occur_time": "16", "longitude": "-84.513090000000005", "latitude": "33.657380000000003", "occur_date": "08/21/2016", "type": "LARCENY-FROM VEHICLE", "day": "Sun", "street_address": "3833 PRINCETON LAKES CT SW"}, {"neighborhood": "Princeton Lakes", "occur_time": "20", "longitude": "-84.508769999999998", "latitude": "33.657769999999999", "occur_date": "08/21/2016", "type": "BURGLARY-RESIDENCE", "day": "Mon", "street_address": "3725 PRINCETON LAKES PKWY SW"}, {"neighborhood": "Princeton Lakes", "occur_time": "07", "longitude": "-84.50994", "latitude": "33.660049999999998", "occur_date": "08/22/2016", "type": "BURGLARY-RESIDENCE", "day": "Mon", "street_address": "3871 REDWINE RD SW"}, {"neighborhood": "Princeton Lakes", "occur_time": "07", "longitude": "-84.508769999999998", "latitude": "33.657769999999999", "occur_date": "08/22/2016", "type": "BURGLARY-RESIDENCE", "day": "Mon", "street_address": "3725 PRINCETON LAKES PKWY SW"}, {"neighborhood": "Princeton Lakes", "occur_time": "18", "longitude": "-84.509079999999997", "latitude": "33.655709999999999", "occur_date": "08/22/2016", "type": "AUTO THEFT", "day": "Mon", "street_address": "3755 CARMIA DR SW"}, {"neighborhood": "Princeton Lakes", "occur_time": "21", "longitude": "-84.510509999999996", "latitude": "33.658059999999999", "occur_date": "08/22/2016", "type": "LARCENY-FROM VEHICLE", "day": "Mon", "street_address": "3760 PRINCETON LAKES PKWY SW"}, {"neighborhood": "Princeton Lakes", "occur_time": "17", "longitude": "-84.510900000000007", "latitude": "33.655729999999998", "occur_date": "08/23/2016", "type": "LARCENY-NON VEHICLE", "day": "Tue", "street_address": "3730 CARMIA DR SW"}, {"neighborhood": "Princeton Lakes", "occur_time": "20", "longitude": "-84.51446", "latitude": "33.662129999999998", "occur_date": "08/24/2016", "type": "LARCENY-FROM VEHICLE", "day": "Thu", "street_address": "3242 WELLINGTON WALK SW"}, {"neighborhood": "Princeton Lakes", "occur_time": "00", "longitude": "-84.509929999999997", "latitude": "33.66901", "occur_date": "08/27/2016", "type": "AUTO THEFT", "day": "Sat", "street_address": "3096 DAWSON LN SW"}, {"neighborhood": "Princeton Lakes", "occur_time": "23", "longitude": "-84.512410000000003", "latitude": "33.66413", "occur_date": "08/27/2016", "type": "ROBBERY-RESIDENCE", "day": "Sat", "street_address": "3660 RAMSEY CLOSE SW"}, {"neighborhood": "Princeton Lakes", "occur_time": "22", "longitude": "-84.508769999999998", "latitude": "33.657769999999999", "occur_date": "08/30/2016", "type": "LARCENY-FROM VEHICLE", "day": "Wed", "street_address": "3725 PRINCETON LAKES PKWY SW"}, {"neighborhood": "Princeton Lakes", "occur_time": "09", "longitude": "-84.508769999999998", "latitude": "33.657769999999999", "occur_date": "08/31/2016", "type": "AUTO THEFT", "day": "Wed", "street_address": "3725 PRINCETON LAKES PKWY SW"}, {"neighborhood": "Princeton Lakes", "occur_time": "15", "longitude": "-84.512709999999998", "latitude": "33.656390000000002", "occur_date": "09/02/2016", "type": "LARCENY-FROM VEHICLE", "day": "Fri", "street_address": "3830 PRINCETON LAKES PKWY SW"}, {"neighborhood": "Princeton Lakes", "occur_time": "22", "longitude": "-84.509079999999997", "latitude": "33.655709999999999", "occur_date": "09/02/2016", "type": "BURGLARY-NONRES", "day": "Sat", "street_address": "3755 CARMIA DR SW"}, {"neighborhood": "Princeton Lakes", "occur_time": "03", "longitude": "-84.508769999999998", "latitude": "33.657769999999999", "occur_date": "09/04/2016", "type": "AGG ASSAULT", "day": "Sun", "street_address": "3725 PRINCETON LAKES PKWY SW"}, {"neighborhood": "Princeton Lakes", "occur_time": "18", "longitude": "-84.517020000000002", "latitude": "33.659260000000003", "occur_date": "09/03/2016", "type": "LARCENY-NON VEHICLE", "day": "Sun", "street_address": "3973 PRINCETON LAKES WAY SW"}, {"neighborhood": "Princeton Lakes", "occur_time": "12", "longitude": "-84.509079999999997", "latitude": "33.655709999999999", "occur_date": "09/05/2016", "type": "AUTO THEFT", "day": "Mon", "street_address": "3755 CARMIA DR SW"}, {"neighborhood": "Princeton Lakes", "occur_time": "19", "longitude": "-84.509289999999993", "latitude": "33.671149999999997", "occur_date": "09/05/2016", "type": "AUTO THEFT", "day": "Mon", "street_address": "3073 DAWSON LN SW"}, {"neighborhood": "Princeton Lakes", "occur_time": "21", "longitude": "-84.508589999999998", "latitude": "33.655000000000001", "occur_date": "09/07/2016", "type": "LARCENY-NON VEHICLE", "day": "Wed", "street_address": "3670 CAMP CREEK PKWY SW"}, {"neighborhood": "Princeton Lakes", "occur_time": "19", "longitude": "-84.514709999999994", "latitude": "33.665120000000002", "occur_date": "09/08/2016", "type": "BURGLARY-RESIDENCE", "day": "Thu", "street_address": "3234 TELFORD TER SW;"}, {"neighborhood": "Princeton Lakes", "occur_time": "17", "longitude": "-84.508589999999998", "latitude": "33.655000000000001", "occur_date": "09/08/2016", "type": "LARCENY-FROM VEHICLE", "day": "Thu", "street_address": "3670 CAMP CREEK PKWY SW"}, {"neighborhood": "Princeton Lakes", "occur_time": "07", "longitude": "-84.507379999999998", "latitude": "33.654269999999997", "occur_date": "09/09/2016", "type": "LARCENY-FROM VEHICLE", "day": "Fri", "street_address": "3620 CAMP CREEK PKWY SW"}, {"neighborhood": "Princeton Lakes", "occur_time": "10", "longitude": "-84.516159999999999", "latitude": "33.6599", "occur_date": "09/13/2016", "type": "AUTO THEFT", "day": "Tue", "street_address": "3885 PRINCETON LAKES WAY SW"}, {"neighborhood": "Princeton Lakes", "occur_time": "17", "longitude": "-84.507869999999997", "latitude": "33.654859999999999", "occur_date": "09/14/2016", "type": "LARCENY-FROM VEHICLE", "day": "Wed", "street_address": "3660 CAMP CREEK PKWY SW"}, {"neighborhood": "Princeton Lakes", "occur_time": "17", "longitude": "-84.509079999999997", "latitude": "33.655709999999999", "occur_date": "09/14/2016", "type": "LARCENY-FROM VEHICLE", "day": "Wed", "street_address": "3755 CARMIA DR SW"}, {"neighborhood": "Princeton Lakes", "occur_time": "08", "longitude": "-84.512", "latitude": "33.668300000000002", "occur_date": "09/15/2016", "type": "LARCENY-FROM VEHICLE", "day": "Thu", "street_address": "3118 DAWSON LN SW"}, {"neighborhood": "Princeton Lakes", "occur_time": "16", "longitude": "-84.510509999999996", "latitude": "33.658059999999999", "occur_date": "09/16/2016", "type": "LARCENY-FROM VEHICLE", "day": "Fri", "street_address": "3760 PRINCETON LAKES PKWY SW"}, {"neighborhood": "Princeton Lakes", "occur_time": "21", "longitude": "-84.513270000000006", "latitude": "33.656350000000003", "occur_date": "09/20/2016", "type": "LARCENY-FROM VEHICLE", "day": "Tue", "street_address": "3800 PRINCETON LAKES PKWY SW"}, {"neighborhood": "Princeton Lakes", "occur_time": "11", "longitude": "-84.508589999999998", "latitude": "33.655000000000001", "occur_date": "09/20/2016", "type": "LARCENY-NON VEHICLE", "day": "Tue", "street_address": "3670 CAMP CREEK PKWY SW"}, {"neighborhood": "Princeton Lakes", "occur_time": "08", "longitude": "-84.50994", "latitude": "33.660049999999998", "occur_date": "09/21/2016", "type": "BURGLARY-RESIDENCE", "day": "Wed", "street_address": "3871 REDWINE RD SW;"}, {"neighborhood": "Princeton Lakes", "occur_time": "20", "longitude": "-84.507379999999998", "latitude": "33.654269999999997", "occur_date": "09/21/2016", "type": "LARCENY-FROM VEHICLE", "day": "Wed", "street_address": "3620 CAMP CREEK PKWY SW"}, {"neighborhood": "Princeton Lakes", "occur_time": "15", "longitude": "-84.509079999999997", "latitude": "33.655709999999999", "occur_date": "09/22/2016", "type": "LARCENY-FROM VEHICLE", "day": "Thu", "street_address": "3755 CARMIA DR"}, {"neighborhood": "Princeton Lakes", "occur_time": "09", "longitude": "-84.511309999999995", "latitude": "33.672530000000002", "occur_date": "09/20/2016", "type": "LARCENY-FROM VEHICLE", "day": "Tue", "street_address": "3094 EASTBROOK TER SW"}, {"neighborhood": "Princeton Lakes", "occur_time": "18", "longitude": "-84.509079999999997", "latitude": "33.655709999999999", "occur_date": "09/22/2016", "type": "LARCENY-NON VEHICLE", "day": "Thu", "street_address": "3755 CARMIA DR SW STE 890"}, {"neighborhood": "Princeton Lakes", "occur_time": "11", "longitude": "-84.509079999999997", "latitude": "33.655709999999999", "occur_date": "09/25/2016", "type": "LARCENY-NON VEHICLE", "day": "Sun", "street_address": "3755 CARMIA DR SW;"}, {"neighborhood": "Princeton Lakes", "occur_time": "23", "longitude": "-84.508769999999998", "latitude": "33.657769999999999", "occur_date": "09/25/2016", "type": "AGG ASSAULT", "day": "Sun", "street_address": "3725 PRINCETON LAKES PKWY SW"}, {"neighborhood": "Princeton Lakes", "occur_time": "14", "longitude": "-84.509079999999997", "latitude": "33.655709999999999", "occur_date": "09/26/2016", "type": "LARCENY-FROM VEHICLE", "day": "Mon", "street_address": "3755 CARMIA"}, {"neighborhood": "Princeton Lakes", "occur_time": "10", "longitude": "-84.507379999999998", "latitude": "33.654269999999997", "occur_date": "09/26/2016", "type": "LARCENY-FROM VEHICLE", "day": "Mon", "street_address": "3620 CAMP CREEK PKWY SW"}, {"neighborhood": "Princeton Lakes", "occur_time": "18", "longitude": "-84.507379999999998", "latitude": "33.654269999999997", "occur_date": "09/26/2016", "type": "LARCENY-FROM VEHICLE", "day": "Tue", "street_address": "3620 CAMP CREEK PKWY SW"}, {"neighborhood": "Princeton Lakes", "occur_time": "16", "longitude": "-84.513090000000005", "latitude": "33.657380000000003", "occur_date": "09/28/2016", "type": "LARCENY-FROM VEHICLE", "day": "Wed", "street_address": "3833 PRINCETON LAKES CT SW;"}, {"neighborhood": "Princeton Lakes", "occur_time": "19", "longitude": "-84.511780000000002", "latitude": "33.657539999999997", "occur_date": "09/30/2016", "type": "LARCENY-FROM VEHICLE", "day": "Fri", "street_address": "3780 PRINCETON LAKES PKWY SW"}, {"neighborhood": "Princeton Lakes", "occur_time": "17", "longitude": "-84.510900000000007", "latitude": "33.655729999999998", "occur_date": "10/01/2016", "type": "LARCENY-NON VEHICLE", "day": "Sat", "street_address": "3730 CARMIA DR SW @PUBLIX - CARMIA"}, {"neighborhood": "Princeton Lakes", "occur_time": "12", "longitude": "-84.507869999999997", "latitude": "33.654859999999999", "occur_date": "10/02/2016", "type": "LARCENY-FROM VEHICLE", "day": "Sun", "street_address": "3660 CAMP CREEK PKWY SW"}, {"neighborhood": "Princeton Lakes", "occur_time": "18", "longitude": "-84.508769999999998", "latitude": "33.657769999999999", "occur_date": "10/02/2016", "type": "AUTO THEFT", "day": "Sun", "street_address": "3725 PRINCETON LAKES PKWY SW"}, {"neighborhood": "Princeton Lakes", "occur_time": "07", "longitude": "-84.513850000000005", "latitude": "33.66122", "occur_date": "10/04/2016", "type": "LARCENY-FROM VEHICLE", "day": "Tue", "street_address": "3886 PRINCETON LAKES WAY SW"}, {"neighborhood": "Princeton Lakes", "occur_time": "14", "longitude": "-84.510729999999995", "latitude": "33.656359999999999", "occur_date": "10/05/2016", "type": "AUTO THEFT", "day": "Wed", "street_address": "3730 CARMIA DR SW @PUBLIX - CARMIA"}, {"neighborhood": "Princeton Lakes", "occur_time": "21", "longitude": "-84.509079999999997", "latitude": "33.655709999999999", "occur_date": "10/05/2016", "type": "LARCENY-FROM VEHICLE", "day": "Wed", "street_address": "3755 CARMIA DR SW"}, {"neighborhood": "Princeton Lakes", "occur_time": "18", "longitude": "-84.513180000000006", "latitude": "33.656660000000002", "occur_date": "10/06/2016", "type": "LARCENY-FROM VEHICLE", "day": "Thu", "street_address": "3830 PRINCETON LAKES CT SW"}, {"neighborhood": "Princeton Lakes", "occur_time": "11", "longitude": "-84.512709999999998", "latitude": "33.656390000000002", "occur_date": "10/06/2016", "type": "BURGLARY-NONRES", "day": "Thu", "street_address": "3830 PRINCETON LAKES PKWY SW"}, {"neighborhood": "Princeton Lakes", "occur_time": "14", "longitude": "-84.510199999999998", "latitude": "33.655279999999998", "occur_date": "10/07/2016", "type": "LARCENY-NON VEHICLE", "day": "Fri", "street_address": "3730 CARMIA DR SW"}, {"neighborhood": "Princeton Lakes", "occur_time": "20", "longitude": "-84.510509999999996", "latitude": "33.658059999999999", "occur_date": "10/07/2016", "type": "LARCENY-FROM VEHICLE", "day": "Fri", "street_address": "3760 PRINCETON LAKES PKWY SW"}, {"neighborhood": "Princeton Lakes", "occur_time": "14", "longitude": "-84.509690000000006", "latitude": "33.673220000000001", "occur_date": "10/09/2016", "type": "LARCENY-NON VEHICLE", "day": "Sun", "street_address": "3046 DAWSON LN SW"}, {"neighborhood": "Princeton Lakes", "occur_time": "09", "longitude": "-84.516270000000006", "latitude": "33.659460000000003", "occur_date": "10/03/2016", "type": "LARCENY-NON VEHICLE", "day": "Mon", "street_address": "3885 PRINCETON LAKES PASS"}, {"neighborhood": "Princeton Lakes", "occur_time": "15", "longitude": "-84.516490000000005", "latitude": "33.659439999999996", "occur_date": "10/13/2016", "type": "LARCENY-FROM VEHICLE", "day": "Thu", "street_address": "3886 PRINCETON LAKES PASS SW"}, {"neighborhood": "Princeton Lakes", "occur_time": "15", "longitude": "-84.510900000000007", "latitude": "33.655729999999998", "occur_date": "10/14/2016", "type": "LARCENY-NON VEHICLE", "day": "Fri", "street_address": "3730 CARMIA DR SW @PUBLIX - CARMIA"}, {"neighborhood": "Princeton Lakes", "occur_time": "12", "longitude": "-84.50994", "latitude": "33.660049999999998", "occur_date": "10/15/2016", "type": "BURGLARY-RESIDENCE", "day": "Sat", "street_address": "3871 REDWINE RD SW"}, {"neighborhood": "Princeton Lakes", "occur_time": "16", "longitude": "-84.508769999999998", "latitude": "33.657769999999999", "occur_date": "10/15/2016", "type": "BURGLARY-RESIDENCE", "day": "Sat", "street_address": "3725 PRINCETON LAKES PKWY SW"}, {"neighborhood": "Princeton Lakes", "occur_time": "14", "longitude": "-84.507869999999997", "latitude": "33.654859999999999", "occur_date": "10/17/2016", "type": "LARCENY-FROM VEHICLE", "day": "Mon", "street_address": "3660 CAMPCREEK PKWY SW"}, {"neighborhood": "Princeton Lakes", "occur_time": "17", "longitude": "-84.516580000000005", "latitude": "33.658740000000002", "occur_date": "10/17/2016", "type": "BURGLARY-RESIDENCE", "day": "Mon", "street_address": "3984 PRINCETON LAKES WAY SW"}, {"neighborhood": "Princeton Lakes", "occur_time": "08", "longitude": "-84.517380000000003", "latitude": "33.659260000000003", "occur_date": "10/18/2016", "type": "BURGLARY-RESIDENCE", "day": "Tue", "street_address": "3996 PRINCETON LAKES WAY SW;"}, {"neighborhood": "Princeton Lakes", "occur_time": "16", "longitude": "-84.510900000000007", "latitude": "33.655729999999998", "occur_date": "10/21/2016", "type": "LARCENY-NON VEHICLE", "day": "Fri", "street_address": "3730 CARMIA DR SW @PUBLIX - CARMIA"}, {"neighborhood": "Princeton Lakes", "occur_time": "19", "longitude": "-84.512709999999998", "latitude": "33.656390000000002", "occur_date": "10/21/2016", "type": "LARCENY-FROM VEHICLE", "day": "Fri", "street_address": "3830 PRINCETON LAKES PKWY SW;"}, {"neighborhood": "Princeton Lakes", "occur_time": "20", "longitude": "-84.507869999999997", "latitude": "33.654859999999999", "occur_date": "10/21/2016", "type": "LARCENY-FROM VEHICLE", "day": "Fri", "street_address": "3660 CAMP CREEK PKWY SW;"}, {"neighborhood": "Princeton Lakes", "occur_time": "23", "longitude": "-84.510509999999996", "latitude": "33.658059999999999", "occur_date": "10/21/2016", "type": "LARCENY-FROM VEHICLE", "day": "Fri", "street_address": "3760 PRINCETON LAKES PKWY SW"}, {"neighborhood": "Princeton Lakes", "occur_time": "22", "longitude": "-84.510509999999996", "latitude": "33.658059999999999", "occur_date": "10/22/2016", "type": "LARCENY-FROM VEHICLE", "day": "Sat", "street_address": "3760 PRINCETON LAKES PKWY SW"}, {"neighborhood": "Princeton Lakes", "occur_time": "12", "longitude": "-84.517380000000003", "latitude": "33.659260000000003", "occur_date": "10/21/2016", "type": "BURGLARY-RESIDENCE", "day": "Unk", "street_address": "3996 PRINCETON LAKES WAY SW"}, {"neighborhood": "Princeton Lakes", "occur_time": "20", "longitude": "-84.515780000000007", "latitude": "33.660800000000002", "occur_date": "10/24/2016", "type": "BURGLARY-RESIDENCE", "day": "Mon", "street_address": "3270 WELLINGTON WALK SW"}, {"neighborhood": "Princeton Lakes", "occur_time": "19", "longitude": "-84.510509999999996", "latitude": "33.658059999999999", "occur_date": "10/25/2016", "type": "LARCENY-FROM VEHICLE", "day": "Tue", "street_address": "3760 PRINCETON LAKES PKWY SW"}, {"neighborhood": "Princeton Lakes", "occur_time": "11", "longitude": "-84.509079999999997", "latitude": "33.655709999999999", "occur_date": "10/28/2016", "type": "LARCENY-FROM VEHICLE", "day": "Fri", "street_address": "3755 CARMIA DR SW"}, {"neighborhood": "Princeton Lakes", "occur_time": "09", "longitude": "-84.509079999999997", "latitude": "33.655709999999999", "occur_date": "10/28/2016", "type": "LARCENY-NON VEHICLE", "day": "Fri", "street_address": "3755 CARMIA DR SW"}, {"neighborhood": "Princeton Lakes", "occur_time": "21", "longitude": "-84.507869999999997", "latitude": "33.654859999999999", "occur_date": "10/28/2016", "type": "LARCENY-FROM VEHICLE", "day": "Fri", "street_address": "3660 CAMP CREEK PKWY SW"}, {"neighborhood": "Princeton Lakes", "occur_time": "03", "longitude": "-84.508769999999998", "latitude": "33.657769999999999", "occur_date": "10/29/2016", "type": "AGG ASSAULT", "day": "Sat", "street_address": "3725 PRINCETON LAKES PKWY SW"}, {"neighborhood": "Princeton Lakes", "occur_time": "05", "longitude": "-84.509079999999997", "latitude": "33.655709999999999", "occur_date": "10/29/2016", "type": "LARCENY-FROM VEHICLE", "day": "Sat", "street_address": "3755 CARMIA DR SW"}, {"neighborhood": "Princeton Lakes", "occur_time": "20", "longitude": "-84.510509999999996", "latitude": "33.658059999999999", "occur_date": "10/30/2016", "type": "LARCENY-FROM VEHICLE", "day": "Sun", "street_address": "3760 PRINCETON LAKES PKWY SW"}, {"neighborhood": "Princeton Lakes", "occur_time": "03", "longitude": "-84.513270000000006", "latitude": "33.656350000000003", "occur_date": "10/31/2016", "type": "LARCENY-FROM VEHICLE", "day": "Mon", "street_address": "3800 PRINCETON LAKES PKWY SW"}, {"neighborhood": "Princeton Lakes", "occur_time": "12", "longitude": "-84.507869999999997", "latitude": "33.654859999999999", "occur_date": "11/01/2016", "type": "LARCENY-FROM VEHICLE", "day": "Tue", "street_address": "3660 CAMP CREEK PKWY SW"}, {"neighborhood": "Princeton Lakes", "occur_time": "22", "longitude": "-84.512709999999998", "latitude": "33.656390000000002", "occur_date": "11/01/2016", "type": "LARCENY-FROM VEHICLE", "day": "Tue", "street_address": "3830 PRINCETON LAKES PKWY SW"}, {"neighborhood": "Princeton Lakes", "occur_time": "15", "longitude": "-84.509079999999997", "latitude": "33.655709999999999", "occur_date": "11/02/2016", "type": "LARCENY-FROM VEHICLE", "day": "Wed", "street_address": "3755 CARMIA DR SW"}, {"neighborhood": "Princeton Lakes", "occur_time": "17", "longitude": "-84.508589999999998", "latitude": "33.655000000000001", "occur_date": "11/02/2016", "type": "LARCENY-FROM VEHICLE", "day": "Wed", "street_address": "3670 CAMP CREEK PKWY SW"}, {"neighborhood": "Princeton Lakes", "occur_time": "13", "longitude": "-84.510509999999996", "latitude": "33.658059999999999", "occur_date": "11/03/2016", "type": "LARCENY-FROM VEHICLE", "day": "Thu", "street_address": "3760 PRINCETON LAKES PKWY SW"}, {"neighborhood": "Princeton Lakes", "occur_time": "13", "longitude": "-84.509079999999997", "latitude": "33.655709999999999", "occur_date": "11/03/2016", "type": "LARCENY-FROM VEHICLE", "day": "Thu", "street_address": "3755 CARMIA DR SW;"}, {"neighborhood": "Princeton Lakes", "occur_time": "15", "longitude": "-84.510509999999996", "latitude": "33.658059999999999", "occur_date": "11/05/2016", "type": "LARCENY-FROM VEHICLE", "day": "Sat", "street_address": "3760 PRINCETON LAKES PKWY SW"}, {"neighborhood": "Princeton Lakes", "occur_time": "18", "longitude": "-84.509079999999997", "latitude": "33.655709999999999", "occur_date": "11/06/2016", "type": "LARCENY-FROM VEHICLE", "day": "Sun", "street_address": "3755 CARMIA DR SW"}, {"neighborhood": "Princeton Lakes", "occur_time": "12", "longitude": "-84.516739999999999", "latitude": "33.658569999999997", "occur_date": "11/07/2016", "type": "BURGLARY-RESIDENCE", "day": "Mon", "street_address": "3997 PRINCETON LAKES PASS SW"}, {"neighborhood": "Princeton Lakes", "occur_time": "22", "longitude": "-84.517759999999996", "latitude": "33.658430000000003", "occur_date": "11/08/2016", "type": "BURGLARY-RESIDENCE", "day": "Tue", "street_address": "4040 PRINCETON LAKES WAY SW"}, {"neighborhood": "Princeton Lakes", "occur_time": "08", "longitude": "-84.517759999999996", "latitude": "33.658430000000003", "occur_date": "11/09/2016", "type": "BURGLARY-RESIDENCE", "day": "Wed", "street_address": "4040 PRINCETON LAKES WAY SW;"}, {"neighborhood": "Princeton Lakes", "occur_time": "19", "longitude": "-84.507869999999997", "latitude": "33.654859999999999", "occur_date": "11/10/2016", "type": "LARCENY-FROM VEHICLE", "day": "Thu", "street_address": "3660 CAMP CREEK PKWY"}, {"neighborhood": "Princeton Lakes", "occur_time": "09", "longitude": "-84.508769999999998", "latitude": "33.657769999999999", "occur_date": "11/11/2016", "type": "BURGLARY-RESIDENCE", "day": "Fri", "street_address": "3725 PRINCETON LAKES PKWY SW;"}, {"neighborhood": "Princeton Lakes", "occur_time": "20", "longitude": "-84.508589999999998", "latitude": "33.655000000000001", "occur_date": "11/11/2016", "type": "LARCENY-FROM VEHICLE", "day": "Fri", "street_address": "3670 CAMP CREEK PKWY SW"}, {"neighborhood": "Princeton Lakes", "occur_time": "02", "longitude": "-84.510040000000004", "latitude": "33.6569", "occur_date": "11/12/2016", "type": "BURGLARY-NONRES", "day": "Sat", "street_address": "3755 CARMIA DR SW"}, {"neighborhood": "Princeton Lakes", "occur_time": "09", "longitude": "-84.509079999999997", "latitude": "33.655709999999999", "occur_date": "11/15/2016", "type": "LARCENY-FROM VEHICLE", "day": "Tue", "street_address": "3755 CARMIA DR SW"}, {"neighborhood": "Princeton Lakes", "occur_time": "19", "longitude": "-84.508589999999998", "latitude": "33.655000000000001", "occur_date": "11/14/2016", "type": "LARCENY-FROM VEHICLE", "day": "Mon", "street_address": "3670 CAMP CREEK PKWY SW"}, {"neighborhood": "Princeton Lakes", "occur_time": "19", "longitude": "-84.507869999999997", "latitude": "33.654859999999999", "occur_date": "11/17/2016", "type": "LARCENY-FROM VEHICLE", "day": "Thu", "street_address": "3660 CAMP CREEK PKWY SW"}, {"neighborhood": "Princeton Lakes", "occur_time": "20", "longitude": "-84.507869999999997", "latitude": "33.654859999999999", "occur_date": "11/20/2016", "type": "LARCENY-FROM VEHICLE", "day": "Sun", "street_address": "3660 CAMP CREEK PKWY SW"}, {"neighborhood": "Princeton Lakes", "occur_time": "15", "longitude": "-84.513270000000006", "latitude": "33.656350000000003", "occur_date": "11/23/2016", "type": "LARCENY-FROM VEHICLE", "day": "Wed", "street_address": "3800 PRINCETON LAKES PKWY SW"}, {"neighborhood": "Princeton Lakes", "occur_time": "02", "longitude": "-84.514880000000005", "latitude": "33.666049999999998", "occur_date": "11/27/2016", "type": "AGG ASSAULT", "day": "Sun", "street_address": "3220 TELFORD TER SW"}, {"neighborhood": "Princeton Lakes", "occur_time": "14", "longitude": "-84.510900000000007", "latitude": "33.655729999999998", "occur_date": "12/05/2016", "type": "LARCENY-FROM VEHICLE", "day": "Mon", "street_address": "3730 CARMIA DR SW @PUBLIX - CARMIA"}, {"neighborhood": "Princeton Lakes", "occur_time": "21", "longitude": "-84.508589999999998", "latitude": "33.655000000000001", "occur_date": "12/05/2016", "type": "LARCENY-FROM VEHICLE", "day": "Mon", "street_address": "3670 CAMP CREEK PKWY SW"}, {"neighborhood": "Princeton Lakes", "occur_time": "05", "longitude": "-84.510040000000004", "latitude": "33.6569", "occur_date": "12/08/2016", "type": "BURGLARY-NONRES", "day": "Thu", "street_address": "3755 CARMIA DR SW"}, {"neighborhood": "Princeton Lakes", "occur_time": "05", "longitude": "-84.510040000000004", "latitude": "33.6569", "occur_date": "12/08/2016", "type": "AUTO THEFT", "day": "Thu", "street_address": "3755 CARMIA DR"}, {"neighborhood": "Princeton Lakes", "occur_time": "18", "longitude": "-84.510040000000004", "latitude": "33.6569", "occur_date": "12/09/2016", "type": "LARCENY-FROM VEHICLE", "day": "Fri", "street_address": "3755 CARMIA DR SW"}, {"neighborhood": "Princeton Lakes", "occur_time": "22", "longitude": "-84.508589999999998", "latitude": "33.655000000000001", "occur_date": "12/10/2016", "type": "LARCENY-FROM VEHICLE", "day": "Sat", "street_address": "3670 CAMP CREEK PKWY SW"}, {"neighborhood": "Princeton Lakes", "occur_time": "05", "longitude": "-84.513440000000003", "latitude": "33.661119999999997", "occur_date": "12/12/2016", "type": "BURGLARY-NONRES", "day": "Mon", "street_address": "3886 PRINCETON LAKES PKWY"}, {"neighborhood": "Princeton Lakes", "occur_time": "07", "longitude": "-84.509079999999997", "latitude": "33.655709999999999", "occur_date": "12/12/2016", "type": "LARCENY-NON VEHICLE", "day": "Mon", "street_address": "3755 CARMIA DR SW"}, {"neighborhood": "Princeton Lakes", "occur_time": "19", "longitude": "-84.510220000000004", "latitude": "33.654879999999999", "occur_date": "12/12/2016", "type": "LARCENY-FROM VEHICLE", "day": "Mon", "street_address": "CAMP CREEK PKWY SW / CARMIA DR SW"}, {"neighborhood": "Princeton Lakes", "occur_time": "08", "longitude": "-84.515780000000007", "latitude": "33.660800000000002", "occur_date": "12/11/2016", "type": "AUTO THEFT", "day": "Sun", "street_address": "3270 WELLINGTON WALK SW"}, {"neighborhood": "Princeton Lakes", "occur_time": "22", "longitude": "-84.509079999999997", "latitude": "33.655709999999999", "occur_date": "12/13/2016", "type": "LARCENY-FROM VEHICLE", "day": "Tue", "street_address": "3755 CARMIA DR SW;"}, {"neighborhood": "Princeton Lakes", "occur_time": "10", "longitude": "-84.508589999999998", "latitude": "33.655000000000001", "occur_date": "12/14/2016", "type": "LARCENY-FROM VEHICLE", "day": "Wed", "street_address": "3670 CAMP CREEK PKWY SW"}, {"neighborhood": "Princeton Lakes", "occur_time": "05", "longitude": "-84.513850000000005", "latitude": "33.66122", "occur_date": "12/15/2016", "type": "BURGLARY-NONRES", "day": "Thu", "street_address": "3886 PRINCETON LAKES WAY SW"}, {"neighborhood": "Princeton Lakes", "occur_time": "20", "longitude": "-84.509079999999997", "latitude": "33.655709999999999", "occur_date": "12/18/2016", "type": "LARCENY-FROM VEHICLE", "day": "Sun", "street_address": "3755 CARMIA DR SW"}, {"neighborhood": "Princeton Lakes", "occur_time": "18", "longitude": "-84.509079999999997", "latitude": "33.655709999999999", "occur_date": "12/20/2016", "type": "LARCENY-FROM VEHICLE", "day": "Tue", "street_address": "3755 CARMIA DR SW"}, {"neighborhood": "Princeton Lakes", "occur_time": "21", "longitude": "-84.510900000000007", "latitude": "33.655729999999998", "occur_date": "12/20/2016", "type": "LARCENY-NON VEHICLE", "day": "Tue", "street_address": "3730 CARMIA DR SW"}, {"neighborhood": "Princeton Lakes", "occur_time": "18", "longitude": "-84.510900000000007", "latitude": "33.655729999999998", "occur_date": "12/21/2016", "type": "LARCENY-NON VEHICLE", "day": "Wed", "street_address": "3730 CARMIA DR SW @PUBLIX - CARMIA"}, {"neighborhood": "Princeton Lakes", "occur_time": "21", "longitude": "-84.508200000000002", "latitude": "33.654449999999997", "occur_date": "12/21/2016", "type": "LARCENY-FROM VEHICLE", "day": "Wed", "street_address": "3680 CAMP CREEK PKWY SW"}, {"neighborhood": "Princeton Lakes", "occur_time": "19", "longitude": "-84.516260000000003", "latitude": "33.65925", "occur_date": "12/23/2016", "type": "BURGLARY-RESIDENCE", "day": "Fri", "street_address": "3905 PRINCETON LAKES PASS SW"}, {"neighborhood": "Princeton Lakes", "occur_time": "16", "longitude": "-84.508769999999998", "latitude": "33.657769999999999", "occur_date": "12/24/2016", "type": "ROBBERY-PEDESTRIAN", "day": "Sat", "street_address": "3725 PRINCETON LAKES PKWY SW;"}, {"neighborhood": "Princeton Lakes", "occur_time": "20", "longitude": "-84.509079999999997", "latitude": "33.655709999999999", "occur_date": "12/29/2016", "type": "AUTO THEFT", "day": "Thu", "street_address": "3755 CARMIA DR SW"}, {"neighborhood": "Princeton Lakes", "occur_time": "10", "longitude": "-84.510199999999998", "latitude": "33.655279999999998", "occur_date": "12/31/2016", "type": "LARCENY-NON VEHICLE", "day": "Sat", "street_address": "3730 CARMIA DR SW"}]