[{"neighborhood": "Summerhill", "occur_time": "20", "longitude": "-84.385480000000001", "latitude": "33.735140000000001", "occur_date": "01/05/2016", "type": "BURGLARY-RESIDENCE", "day": "Tue", "street_address": "713 REED ST SE"}, {"neighborhood": "Summerhill", "occur_time": "17", "longitude": "-84.387640000000005", "latitude": "33.732059999999997", "occur_date": "01/07/2016", "type": "LARCENY-NON VEHICLE", "day": "Thu", "street_address": "834 HANK AARON DR SE"}, {"neighborhood": "Summerhill", "occur_time": "22", "longitude": "-84.382909999999995", "latitude": "33.739800000000002", "occur_date": "01/07/2016", "type": "AGG ASSAULT", "day": "Thu", "street_address": "147 RICHMOND ST SE"}, {"neighborhood": "Summerhill", "occur_time": "19", "longitude": "-84.391000000000005", "latitude": "33.733280000000001", "occur_date": "01/08/2016", "type": "LARCENY-NON VEHICLE", "day": "Fri", "street_address": "795 POLLARD BLVD SW"}, {"neighborhood": "Summerhill", "occur_time": "17", "longitude": "-84.382949999999994", "latitude": "33.740029999999997", "occur_date": "01/10/2016", "type": "LARCENY-FROM VEHICLE", "day": "Mon", "street_address": "140 RICHMOND ST SE"}, {"neighborhood": "Summerhill", "occur_time": "05", "longitude": "-84.386859999999999", "latitude": "33.742289999999997", "occur_date": "01/12/2016", "type": "AUTO THEFT", "day": "Tue", "street_address": "450 CAPITOL AVE SE @CARTER HALL"}, {"neighborhood": "Summerhill", "occur_time": "18", "longitude": "-84.383799999999994", "latitude": "33.741770000000002", "occur_date": "01/13/2016", "type": "BURGLARY-RESIDENCE", "day": "Thu", "street_address": "472 MARTIN ST SE"}, {"neighborhood": "Summerhill", "occur_time": "15", "longitude": "-84.388369999999995", "latitude": "33.732750000000003", "occur_date": "01/13/2016", "type": "LARCENY-NON VEHICLE", "day": "Wed", "street_address": "811 HANK AARON DR SW @CAPITOL AVE APTS"}, {"neighborhood": "Summerhill", "occur_time": "11", "longitude": "-84.384249999999994", "latitude": "33.738129999999998", "occur_date": "02/02/2016", "type": "LARCENY-FROM VEHICLE", "day": "Tue", "street_address": "605 MARTIN ST SE"}, {"neighborhood": "Summerhill", "occur_time": "00", "longitude": "-84.380300000000005", "latitude": "33.73218", "occur_date": "02/04/2016", "type": "LARCENY-FROM VEHICLE", "day": "Thu", "street_address": "227 SOUTH AVE SE"}, {"neighborhood": "Summerhill", "occur_time": "16", "longitude": "-84.384659999999997", "latitude": "33.73489", "occur_date": "02/04/2016", "type": "BURGLARY-RESIDENCE", "day": "Thu", "street_address": "724 TERRY ST SE"}, {"neighborhood": "Summerhill", "occur_time": "22", "longitude": "-84.386120000000005", "latitude": "33.73836", "occur_date": "02/05/2016", "type": "ROBBERY-PEDESTRIAN", "day": "Sat", "street_address": "582 FRASER ST SE"}, {"neighborhood": "Summerhill", "occur_time": "15", "longitude": "-84.391270000000006", "latitude": "33.734050000000003", "occur_date": "02/09/2016", "type": "AUTO THEFT", "day": "Tue", "street_address": "759 POLLARD BLVD SW"}, {"neighborhood": "Summerhill", "occur_time": "00", "longitude": "-84.383960000000002", "latitude": "33.738309999999998", "occur_date": "02/25/2016", "type": "ROBBERY-RESIDENCE", "day": "Thu", "street_address": "600 MARTIN ST SE"}, {"neighborhood": "Summerhill", "occur_time": "19", "longitude": "-84.385429999999999", "latitude": "33.734319999999997", "occur_date": "02/25/2016", "type": "AUTO THEFT", "day": "Fri", "street_address": "75 BILL LUCAS DR SE"}, {"neighborhood": "Summerhill", "occur_time": "19", "longitude": "-84.388999999999996", "latitude": "33.736240000000002", "occur_date": "03/05/2016", "type": "AGG ASSAULT", "day": "Sat", "street_address": "755 HANK AARON DR SW @TURNER FIELD"}, {"neighborhood": "Summerhill", "occur_time": "13", "longitude": "-84.391260000000003", "latitude": "33.7348", "occur_date": "03/08/2016", "type": "LARCENY-NON VEHICLE", "day": "Tue", "street_address": "735 POLLARD BLVD SW"}, {"neighborhood": "Summerhill", "occur_time": "04", "longitude": "-84.384119999999996", "latitude": "33.736789999999999", "occur_date": "03/13/2016", "type": "AGG ASSAULT", "day": "Sun", "street_address": "600 MARTIN ST SE"}, {"neighborhood": "Summerhill", "occur_time": "07", "longitude": "-84.383960000000002", "latitude": "33.738309999999998", "occur_date": "03/24/2016", "type": "AUTO THEFT", "day": "Thu", "street_address": "600 MARTIN ST SE"}, {"neighborhood": "Summerhill", "occur_time": "10", "longitude": "-84.386859999999999", "latitude": "33.742289999999997", "occur_date": "03/25/2016", "type": "LARCENY-NON VEHICLE", "day": "Fri", "street_address": "450 CAPITOL AVE SE @CARTER HALL"}, {"neighborhood": "Summerhill", "occur_time": "23", "longitude": "-84.386060000000001", "latitude": "33.735390000000002", "occur_date": "03/25/2016", "type": "LARCENY-NON VEHICLE", "day": "Fri", "street_address": "706 FRASER ST SE"}, {"neighborhood": "Summerhill", "occur_time": "19", "longitude": "-84.383600000000001", "latitude": "33.732959999999999", "occur_date": "03/28/2016", "type": "BURGLARY-RESIDENCE", "day": "Mon", "street_address": "131 LITTLE ST SE"}, {"neighborhood": "Summerhill", "occur_time": "21", "longitude": "-84.38185", "latitude": "33.736849999999997", "occur_date": "03/28/2016", "type": "AUTO THEFT", "day": "Mon", "street_address": "174 GEORGIA AVE SE"}, {"neighborhood": "Summerhill", "occur_time": "22", "longitude": "-84.391000000000005", "latitude": "33.733280000000001", "occur_date": "04/01/2016", "type": "LARCENY-NON VEHICLE", "day": "Fri", "street_address": "795 POLLARD BLVD SW"}, {"neighborhood": "Summerhill", "occur_time": "20", "longitude": "-84.382819999999995", "latitude": "33.741030000000002", "occur_date": "04/01/2016", "type": "BURGLARY-RESIDENCE", "day": "Fri", "street_address": "146 RICHARDSON ST SE"}, {"neighborhood": "Summerhill", "occur_time": "00", "longitude": "-84.391000000000005", "latitude": "33.733280000000001", "occur_date": "04/03/2016", "type": "LARCENY-FROM VEHICLE", "day": "Sun", "street_address": "795 POLLARD AVE SW"}, {"neighborhood": "Summerhill", "occur_time": "04", "longitude": "-84.391000000000005", "latitude": "33.733280000000001", "occur_date": "04/04/2016", "type": "LARCENY-FROM VEHICLE", "day": "Mon", "street_address": "795 POLLARD BLVD SW"}, {"neighborhood": "Summerhill", "occur_time": "20", "longitude": "-84.387929999999997", "latitude": "33.731760000000001", "occur_date": "04/04/2016", "type": "LARCENY-FROM VEHICLE", "day": "Mon", "street_address": "755 HANK AARON DR SW"}, {"neighborhood": "Summerhill", "occur_time": "00", "longitude": "-84.391270000000006", "latitude": "33.734050000000003", "occur_date": "04/05/2016", "type": "LARCENY-FROM VEHICLE", "day": "Tue", "street_address": "759 POLLARD BLVD SW @HOWARD JOHNSONS S"}, {"neighborhood": "Summerhill", "occur_time": "16", "longitude": "-84.387649999999994", "latitude": "33.735689999999998", "occur_date": "04/04/2016", "type": "AUTO THEFT", "day": "Mon", "street_address": "2 BASS STREET"}, {"neighborhood": "Summerhill", "occur_time": "19", "longitude": "-84.384360000000001", "latitude": "33.731650000000002", "occur_date": "04/05/2016", "type": "ROBBERY-PEDESTRIAN", "day": "Tue", "street_address": "ORMOND ST SE / MARTIN ST SE"}, {"neighborhood": "Summerhill", "occur_time": "21", "longitude": "-84.387640000000005", "latitude": "33.732059999999997", "occur_date": "04/05/2016", "type": "AGG ASSAULT", "day": "Tue", "street_address": "834 HANK AARON DR SE"}, {"neighborhood": "Summerhill", "occur_time": "12", "longitude": "-84.383759999999995", "latitude": "33.738169999999997", "occur_date": "04/06/2016", "type": "ROBBERY-PEDESTRIAN", "day": "Wed", "street_address": "559  MARTIN ST SE"}, {"neighborhood": "Summerhill", "occur_time": "22", "longitude": "-84.388999999999996", "latitude": "33.736240000000002", "occur_date": "04/09/2016", "type": "LARCENY-NON VEHICLE", "day": "Sat", "street_address": "755 HANK AARON"}, {"neighborhood": "Summerhill", "occur_time": "14", "longitude": "-84.384100000000004", "latitude": "33.732239999999997", "occur_date": "04/13/2016", "type": "LARCENY-NON VEHICLE", "day": "Wed", "street_address": "820 MARTIN ST SE"}, {"neighborhood": "Summerhill", "occur_time": "23", "longitude": "-84.382059999999996", "latitude": "33.733029999999999", "occur_date": "04/16/2016", "type": "LARCENY-FROM VEHICLE", "day": "Sat", "street_address": "169 LITTLE ST SE"}, {"neighborhood": "Summerhill", "occur_time": "15", "longitude": "-84.384119999999996", "latitude": "33.736789999999999", "occur_date": "04/17/2016", "type": "AUTO THEFT", "day": "Sun", "street_address": "987 MARTIN ST SE"}, {"neighborhood": "Summerhill", "occur_time": "00", "longitude": "-84.385339999999999", "latitude": "33.739100000000001", "occur_date": "04/20/2016", "type": "AUTO THEFT", "day": "Wed", "street_address": "570 REED ST SE"}, {"neighborhood": "Summerhill", "occur_time": "23", "longitude": "-84.387889999999999", "latitude": "33.742370000000001", "occur_date": "04/20/2016", "type": "LARCENY-FROM VEHICLE", "day": "Thu", "street_address": "455 CAPITOL AVE SW"}, {"neighborhood": "Summerhill", "occur_time": "01", "longitude": "-84.391000000000005", "latitude": "33.733280000000001", "occur_date": "04/25/2016", "type": "ROBBERY-COMMERCIAL", "day": "Mon", "street_address": "795 POLLARD BLVD SW"}, {"neighborhood": "Summerhill", "occur_time": "18", "longitude": "-84.388999999999996", "latitude": "33.736240000000002", "occur_date": "04/26/2016", "type": "LARCENY-FROM VEHICLE", "day": "Tue", "street_address": "755 HANK AARON DR SE"}, {"neighborhood": "Summerhill", "occur_time": "11", "longitude": "-84.391000000000005", "latitude": "33.733280000000001", "occur_date": "04/29/2016", "type": "AUTO THEFT", "day": "Fri", "street_address": "795 POLLARD BLVD SW"}, {"neighborhood": "Summerhill", "occur_time": "13", "longitude": "-84.384649999999993", "latitude": "33.740130000000001", "occur_date": "05/02/2016", "type": "LARCENY-NON VEHICLE", "day": "Mon", "street_address": "94 RICHMOND ST SE"}, {"neighborhood": "Summerhill", "occur_time": "18", "longitude": "-84.384450000000001", "latitude": "33.740740000000002", "occur_date": "04/29/2016", "type": "LARCENY-FROM VEHICLE", "day": "Sat", "street_address": "96 RICHARDSON ST SE"}, {"neighborhood": "Summerhill", "occur_time": "23", "longitude": "-84.384780000000006", "latitude": "33.741129999999998", "occur_date": "05/07/2016", "type": "AUTO THEFT", "day": "Unk", "street_address": "83 HAMMOCK PL SE"}, {"neighborhood": "Summerhill", "occur_time": "22", "longitude": "-84.385670000000005", "latitude": "33.732950000000002", "occur_date": "05/09/2016", "type": "LARCENY-FROM VEHICLE", "day": "Mon", "street_address": "67 LITTLE ST SE"}, {"neighborhood": "Summerhill", "occur_time": "20", "longitude": "-84.388999999999996", "latitude": "33.736240000000002", "occur_date": "05/10/2016", "type": "LARCENY-NON VEHICLE", "day": "Tue", "street_address": "755 HANK AARON DR SW @TURNER FIELD"}, {"neighborhood": "Summerhill", "occur_time": "03", "longitude": "-84.384569999999997", "latitude": "33.732379999999999", "occur_date": "05/16/2016", "type": "LARCENY-NON VEHICLE", "day": "Mon", "street_address": "815 MARTIN ST SE"}, {"neighborhood": "Summerhill", "occur_time": "00", "longitude": "-84.383949999999999", "latitude": "33.732979999999998", "occur_date": "05/16/2016", "type": "AUTO THEFT", "day": "Mon", "street_address": "117 LITTLE ST SE"}, {"neighborhood": "Summerhill", "occur_time": "00", "longitude": "-84.384649999999993", "latitude": "33.74174", "occur_date": "05/16/2016", "type": "AUTO THEFT", "day": "Mon", "street_address": "83 FULTON ST SE"}, {"neighborhood": "Summerhill", "occur_time": "04", "longitude": "-84.391270000000006", "latitude": "33.734050000000003", "occur_date": "05/17/2016", "type": "LARCENY-FROM VEHICLE", "day": "Tue", "street_address": "759 POLLARD BLVD SW @HOWARD JOHNSONS S"}, {"neighborhood": "Summerhill", "occur_time": "04", "longitude": "-84.391000000000005", "latitude": "33.733280000000001", "occur_date": "05/17/2016", "type": "AUTO THEFT", "day": "Tue", "street_address": "794  POLLARD BLVD SW"}, {"neighborhood": "Summerhill", "occur_time": "12", "longitude": "-84.388999999999996", "latitude": "33.736240000000002", "occur_date": "05/12/2016", "type": "LARCENY-FROM VEHICLE", "day": "Unk", "street_address": "755 HANK AARON DR SW @TURNER FIELD"}, {"neighborhood": "Summerhill", "occur_time": "10", "longitude": "-84.380300000000005", "latitude": "33.73218", "occur_date": "05/17/2016", "type": "LARCENY-FROM VEHICLE", "day": "Tue", "street_address": "227 SOUTH AVE SE"}, {"neighborhood": "Summerhill", "occur_time": "20", "longitude": "-84.381590000000003", "latitude": "33.741379999999999", "occur_date": "05/17/2016", "type": "LARCENY-FROM VEHICLE", "day": "Wed", "street_address": "485 CONNALLY ST SE"}, {"neighborhood": "Summerhill", "occur_time": "15", "longitude": "-84.386859999999999", "latitude": "33.742289999999997", "occur_date": "04/16/2016", "type": "AUTO THEFT", "day": "Unk", "street_address": "450 CAPITOL AVE SE @ENTERPRISE RENT A CAR"}, {"neighborhood": "Summerhill", "occur_time": "16", "longitude": "-84.383830000000003", "latitude": "33.740130000000001", "occur_date": "05/18/2016", "type": "LARCENY-FROM VEHICLE", "day": "Wed", "street_address": "536 MARTIN ST SE"}, {"neighborhood": "Summerhill", "occur_time": "21", "longitude": "-84.382239999999996", "latitude": "33.732959999999999", "occur_date": "05/19/2016", "type": "LARCENY-FROM VEHICLE", "day": "Fri", "street_address": "165 LITTLE ST SE"}, {"neighborhood": "Summerhill", "occur_time": "10", "longitude": "-84.38073", "latitude": "33.73498", "occur_date": "05/20/2016", "type": "LARCENY-FROM VEHICLE", "day": "Fri", "street_address": "720 CONNALLY ST SE"}, {"neighborhood": "Summerhill", "occur_time": "01", "longitude": "-84.386070000000004", "latitude": "33.734949999999998", "occur_date": "05/21/2016", "type": "AUTO THEFT", "day": "Sat", "street_address": "722 FRASER ST SE"}, {"neighborhood": "Summerhill", "occur_time": "17", "longitude": "-84.384320000000002", "latitude": "33.737380000000002", "occur_date": "05/23/2016", "type": "LARCENY-FROM VEHICLE", "day": "Mon", "street_address": "631 MARTIN ST SE"}, {"neighborhood": "Summerhill", "occur_time": "04", "longitude": "-84.391270000000006", "latitude": "33.734050000000003", "occur_date": "05/29/2016", "type": "LARCENY-FROM VEHICLE", "day": "Sun", "street_address": "759 POLLARD BLVD SW @HOWARD JOHNSONS"}, {"neighborhood": "Summerhill", "occur_time": "19", "longitude": "-84.386619999999994", "latitude": "33.733550000000001", "occur_date": "05/29/2016", "type": "LARCENY-FROM VEHICLE", "day": "Sun", "street_address": "771 FRASER ST SE"}, {"neighborhood": "Summerhill", "occur_time": "22", "longitude": "-84.383960000000002", "latitude": "33.738309999999998", "occur_date": "05/30/2016", "type": "AGG ASSAULT", "day": "Mon", "street_address": "600 MARTIN ST SE"}, {"neighborhood": "Summerhill", "occur_time": "18", "longitude": "-84.388999999999996", "latitude": "33.736240000000002", "occur_date": "05/31/2016", "type": "LARCENY-FROM VEHICLE", "day": "Tue", "street_address": "755 HANK AARON DR SW @TURNER FIELD"}, {"neighborhood": "Summerhill", "occur_time": "22", "longitude": "-84.384569999999997", "latitude": "33.732379999999999", "occur_date": "06/01/2016", "type": "LARCENY-FROM VEHICLE", "day": "Wed", "street_address": "815 MARTIN ST SE"}, {"neighborhood": "Summerhill", "occur_time": "19", "longitude": "-84.384339999999995", "latitude": "33.734549999999999", "occur_date": "06/02/2016", "type": "ROBBERY-PEDESTRIAN", "day": "Thu", "street_address": "733 MARTIN ST SE"}, {"neighborhood": "Summerhill", "occur_time": "00", "longitude": "-84.383949999999999", "latitude": "33.74053", "occur_date": "06/04/2016", "type": "LARCENY-NON VEHICLE", "day": "Sat", "street_address": "518 MARTIN ST SE"}, {"neighborhood": "Summerhill", "occur_time": "19", "longitude": "-84.387820000000005", "latitude": "33.731929999999998", "occur_date": "06/08/2016", "type": "LARCENY-NON VEHICLE", "day": "Wed", "street_address": "834 HANK AARON DR SE"}, {"neighborhood": "Summerhill", "occur_time": "11", "longitude": "-84.391260000000003", "latitude": "33.7348", "occur_date": "06/09/2016", "type": "LARCENY-FROM VEHICLE", "day": "Thu", "street_address": "735 POLLARD BLVD SW"}, {"neighborhood": "Summerhill", "occur_time": "21", "longitude": "-84.384420000000006", "latitude": "33.735469999999999", "occur_date": "06/09/2016", "type": "LARCENY-FROM VEHICLE", "day": "Thu", "street_address": "705 MARTIN ST SE"}, {"neighborhood": "Summerhill", "occur_time": "12", "longitude": "-84.38485", "latitude": "33.735480000000003", "occur_date": "06/08/2016", "type": "LARCENY-FROM VEHICLE", "day": "Wed", "street_address": "87 BASS ST SE"}, {"neighborhood": "Summerhill", "occur_time": "12", "longitude": "-84.388229999999993", "latitude": "33.741779999999999", "occur_date": "06/11/2016", "type": "AGG ASSAULT", "day": "Sat", "street_address": "2 FULTON ST SW"}, {"neighborhood": "Summerhill", "occur_time": "16", "longitude": "-84.387919999999994", "latitude": "33.733159999999998", "occur_date": "06/11/2016", "type": "LARCENY-FROM VEHICLE", "day": "Sat", "street_address": "HANK AARON DR SE / LITTLE ST SE"}, {"neighborhood": "Summerhill", "occur_time": "19", "longitude": "-84.381720000000001", "latitude": "33.740200000000002", "occur_date": "06/13/2016", "type": "LARCENY-FROM VEHICLE", "day": "Mon", "street_address": "531 CONNALLY ST SE"}, {"neighborhood": "Summerhill", "occur_time": "22", "longitude": "-84.384550000000004", "latitude": "33.73771", "occur_date": "06/15/2016", "type": "AUTO THEFT", "day": "Thu", "street_address": "97 GLENN ST SE"}, {"neighborhood": "Summerhill", "occur_time": "16", "longitude": "-84.382249999999999", "latitude": "33.732170000000004", "occur_date": "06/16/2016", "type": "AGG ASSAULT", "day": "Thu", "street_address": "175 SOUTH AVE SE"}, {"neighborhood": "Summerhill", "occur_time": "22", "longitude": "-84.385720000000006", "latitude": "33.740389999999998", "occur_date": "06/18/2016", "type": "LARCENY-FROM VEHICLE", "day": "Sat", "street_address": "507 REED ST SE"}, {"neighborhood": "Summerhill", "occur_time": "01", "longitude": "-84.382999999999996", "latitude": "33.741370000000003", "occur_date": "06/19/2016", "type": "AUTO THEFT", "day": "Sun", "street_address": "139 FULTON WAY SE"}, {"neighborhood": "Summerhill", "occur_time": "21", "longitude": "-84.381720000000001", "latitude": "33.740200000000002", "occur_date": "06/19/2016", "type": "LARCENY-FROM VEHICLE", "day": "Mon", "street_address": "531 CONNALLY ST SE"}, {"neighborhood": "Summerhill", "occur_time": "20", "longitude": "-84.386139999999997", "latitude": "33.740110000000001", "occur_date": "06/19/2016", "type": "LARCENY-FROM VEHICLE", "day": "Mon", "street_address": "512 FRASER ST SE"}, {"neighborhood": "Summerhill", "occur_time": "17", "longitude": "-84.388999999999996", "latitude": "33.736240000000002", "occur_date": "06/20/2016", "type": "LARCENY-NON VEHICLE", "day": "Unk", "street_address": "755 HANK AARON DR SW @TURNER FIELD"}, {"neighborhood": "Summerhill", "occur_time": "18", "longitude": "-84.388999999999996", "latitude": "33.736240000000002", "occur_date": "06/16/2016", "type": "LARCENY-NON VEHICLE", "day": "Fri", "street_address": "755 HANK AARON DR SW @TURNER FIELD"}, {"neighborhood": "Summerhill", "occur_time": "21", "longitude": "-84.386849999999995", "latitude": "33.736600000000003", "occur_date": "07/01/2016", "type": "AGG ASSAULT", "day": "Fri", "street_address": "29 GEORGIA AVE SE"}, {"neighborhood": "Summerhill", "occur_time": "16", "longitude": "-84.383960000000002", "latitude": "33.738309999999998", "occur_date": "07/15/2016", "type": "LARCENY-FROM VEHICLE", "day": "Fri", "street_address": "600 MARTIN ST SE"}, {"neighborhood": "Summerhill", "occur_time": "13", "longitude": "-84.384510000000006", "latitude": "33.740850000000002", "occur_date": "07/17/2016", "type": "LARCENY-NON VEHICLE", "day": "Sun", "street_address": "88 RICHARDSON ST SE"}, {"neighborhood": "Summerhill", "occur_time": "13", "longitude": "-84.385580000000004", "latitude": "33.733409999999999", "occur_date": "07/20/2016", "type": "LARCENY-FROM VEHICLE", "day": "Wed", "street_address": "70 LITTLE ST SE"}, {"neighborhood": "Summerhill", "occur_time": "13", "longitude": "-84.388999999999996", "latitude": "33.736240000000002", "occur_date": "07/27/2016", "type": "LARCENY-FROM VEHICLE", "day": "Wed", "street_address": "755 HANK AARON DR SW @TURNER FIELD"}, {"neighborhood": "Summerhill", "occur_time": "17", "longitude": "-84.387680000000003", "latitude": "33.742060000000002", "occur_date": "07/27/2016", "type": "BURGLARY-RESIDENCE", "day": "Wed", "street_address": "450 CAPITOL AVE SE;"}, {"neighborhood": "Summerhill", "occur_time": "16", "longitude": "-84.384360000000001", "latitude": "33.731650000000002", "occur_date": "07/28/2016", "type": "ROBBERY-PEDESTRIAN", "day": "Thu", "street_address": "144 ORMOND ST SE"}, {"neighborhood": "Summerhill", "occur_time": "12", "longitude": "-84.388999999999996", "latitude": "33.736240000000002", "occur_date": "07/31/2016", "type": "LARCENY-FROM VEHICLE", "day": "Sun", "street_address": "755 HANK AARON DR SW @TURNER FIELD"}, {"neighborhood": "Summerhill", "occur_time": "19", "longitude": "-84.385360000000006", "latitude": "33.741129999999998", "occur_date": "07/31/2016", "type": "AGG ASSAULT", "day": "Sun", "street_address": "75 HAMMOCK PL SE"}, {"neighborhood": "Summerhill", "occur_time": "07", "longitude": "-84.391270000000006", "latitude": "33.734050000000003", "occur_date": "08/02/2016", "type": "LARCENY-FROM VEHICLE", "day": "Tue", "street_address": "759 POLLARD BLVD SW @COUNTRY INN & SUITES"}, {"neighborhood": "Summerhill", "occur_time": "07", "longitude": "-84.38458", "latitude": "33.731960000000001", "occur_date": "08/11/2016", "type": "LARCENY-FROM VEHICLE", "day": "Thu", "street_address": "831 MARTIN ST SE;"}, {"neighborhood": "Summerhill", "occur_time": "21", "longitude": "-84.384309999999999", "latitude": "33.736080000000001", "occur_date": "08/12/2016", "type": "AGG ASSAULT", "day": "Fri", "street_address": "679 MARTIN ST SE"}, {"neighborhood": "Summerhill", "occur_time": "21", "longitude": "-84.384649999999993", "latitude": "33.74174", "occur_date": "08/12/2016", "type": "LARCENY-FROM VEHICLE", "day": "Sat", "street_address": "83 FULTON ST SE"}, {"neighborhood": "Summerhill", "occur_time": "13", "longitude": "-84.385120000000001", "latitude": "33.734560000000002", "occur_date": "08/14/2016", "type": "AUTO THEFT", "day": "Sun", "street_address": "66 BILL LUCAS DR SE"}, {"neighborhood": "Summerhill", "occur_time": "07", "longitude": "-84.383920000000003", "latitude": "33.741619999999998", "occur_date": "08/16/2016", "type": "ROBBERY-PEDESTRIAN", "day": "Tue", "street_address": "482 MARTIN ST SE"}, {"neighborhood": "Summerhill", "occur_time": "19", "longitude": "-84.383899999999997", "latitude": "33.741799999999998", "occur_date": "08/16/2016", "type": "LARCENY-FROM VEHICLE", "day": "Wed", "street_address": "472 MARTIN ST SE"}, {"neighborhood": "Summerhill", "occur_time": "22", "longitude": "-84.382409999999993", "latitude": "33.740650000000002", "occur_date": "08/18/2016", "type": "AUTO THEFT", "day": "Fri", "street_address": "159 RICHARDSON ST SE"}, {"neighborhood": "Summerhill", "occur_time": "10", "longitude": "-84.391270000000006", "latitude": "33.734050000000003", "occur_date": "08/19/2016", "type": "LARCENY-NON VEHICLE", "day": "Fri", "street_address": "759 POLLARD BLVD SW"}, {"neighborhood": "Summerhill", "occur_time": "19", "longitude": "-84.387789999999995", "latitude": "33.741880000000002", "occur_date": "08/20/2016", "type": "AUTO THEFT", "day": "Sat", "street_address": "450 CAPITOL AVE"}, {"neighborhood": "Summerhill", "occur_time": "20", "longitude": "-84.387929999999997", "latitude": "33.731760000000001", "occur_date": "08/20/2016", "type": "LARCENY-FROM VEHICLE", "day": "Sat", "street_address": "834 HANK AARON DR"}, {"neighborhood": "Summerhill", "occur_time": "12", "longitude": "-84.387929999999997", "latitude": "33.731760000000001", "occur_date": "08/22/2016", "type": "AUTO THEFT", "day": "Mon", "street_address": "827 FRASER ST"}, {"neighborhood": "Summerhill", "occur_time": "09", "longitude": "-84.388999999999996", "latitude": "33.736240000000002", "occur_date": "08/25/2016", "type": "LARCENY-FROM VEHICLE", "day": "Thu", "street_address": "755 HANK AARON DR SW"}, {"neighborhood": "Summerhill", "occur_time": "15", "longitude": "-84.380020000000002", "latitude": "33.73574", "occur_date": "08/25/2016", "type": "LARCENY-NON VEHICLE", "day": "Thu", "street_address": "691 GRANT TER SE"}, {"neighborhood": "Summerhill", "occur_time": "12", "longitude": "-84.384280000000004", "latitude": "33.738840000000003", "occur_date": "08/28/2016", "type": "AGG ASSAULT", "day": "Sun", "street_address": "581 MARTIN ST SE;"}, {"neighborhood": "Summerhill", "occur_time": "14", "longitude": "-84.385050000000007", "latitude": "33.739220000000003", "occur_date": "08/28/2016", "type": "AGG ASSAULT", "day": "Sun", "street_address": "565 TERRY ST SE"}, {"neighborhood": "Summerhill", "occur_time": "18", "longitude": "-84.388999999999996", "latitude": "33.736240000000002", "occur_date": "08/30/2016", "type": "LARCENY-FROM VEHICLE", "day": "Tue", "street_address": "755 HANK AARON DR SW @TURNER FIELD"}, {"neighborhood": "Summerhill", "occur_time": "12", "longitude": "-84.384230000000002", "latitude": "33.733040000000003", "occur_date": "09/03/2016", "type": "LARCENY-FROM VEHICLE", "day": "Sat", "street_address": "127 LITTLE ST SE"}, {"neighborhood": "Summerhill", "occur_time": "00", "longitude": "-84.384249999999994", "latitude": "33.738019999999999", "occur_date": "09/04/2016", "type": "BURGLARY-RESIDENCE", "day": "Sun", "street_address": "609 MARTIN ST SE"}, {"neighborhood": "Summerhill", "occur_time": "20", "longitude": "-84.385739999999998", "latitude": "33.738219999999998", "occur_date": "09/06/2016", "type": "LARCENY-FROM VEHICLE", "day": "Wed", "street_address": "589 REED ST SE"}, {"neighborhood": "Summerhill", "occur_time": "15", "longitude": "-84.387640000000005", "latitude": "33.732059999999997", "occur_date": "09/07/2016", "type": "LARCENY-NON VEHICLE", "day": "Wed", "street_address": "834 HANK AARON DR SE"}, {"neighborhood": "Summerhill", "occur_time": "19", "longitude": "-84.384619999999998", "latitude": "33.738549999999996", "occur_date": "09/07/2016", "type": "LARCENY-FROM VEHICLE", "day": "Thu", "street_address": "590 TERRY ST SE"}, {"neighborhood": "Summerhill", "occur_time": "18", "longitude": "-84.387789999999995", "latitude": "33.741880000000002", "occur_date": "09/10/2016", "type": "AUTO THEFT", "day": "Sat", "street_address": "254 CAPITOL AVE SE"}, {"neighborhood": "Summerhill", "occur_time": "00", "longitude": "-84.383759999999995", "latitude": "33.731819999999999", "occur_date": "09/11/2016", "type": "AUTO THEFT", "day": "Sun", "street_address": "128 ORMOND ST SE"}, {"neighborhood": "Summerhill", "occur_time": "13", "longitude": "-84.384240000000005", "latitude": "33.739339999999999", "occur_date": "09/12/2016", "type": "LARCENY-NON VEHICLE", "day": "Mon", "street_address": "559 MARTIN STREET SE"}, {"neighborhood": "Summerhill", "occur_time": "20", "longitude": "-84.383899999999997", "latitude": "33.740470000000002", "occur_date": "09/13/2016", "type": "LARCENY-FROM VEHICLE", "day": "Wed", "street_address": "518 MARTIN ST SE"}, {"neighborhood": "Summerhill", "occur_time": "18", "longitude": "-84.386859999999999", "latitude": "33.742289999999997", "occur_date": "07/27/2016", "type": "AUTO THEFT", "day": "Unk", "street_address": "450 CAPITOL AVE SE @CARTER HALL;"}, {"neighborhood": "Summerhill", "occur_time": "10", "longitude": "-84.385159999999999", "latitude": "33.734499999999997", "occur_date": "09/17/2016", "type": "LARCENY-FROM VEHICLE", "day": "Sat", "street_address": "68 BILL LUCAS DR SE"}, {"neighborhood": "Summerhill", "occur_time": "13", "longitude": "-84.384280000000004", "latitude": "33.741520000000001", "occur_date": "09/18/2016", "type": "LARCENY-FROM VEHICLE", "day": "Sun", "street_address": "481 MARTIN ST SE @SALEM BAPTIST"}, {"neighborhood": "Summerhill", "occur_time": "15", "longitude": "-84.384420000000006", "latitude": "33.735469999999999", "occur_date": "09/18/2016", "type": "LARCENY-FROM VEHICLE", "day": "Sun", "street_address": "705 MARTIN ST SE @THANKFUL BAPTIST"}, {"neighborhood": "Summerhill", "occur_time": "18", "longitude": "-84.385949999999994", "latitude": "33.739289999999997", "occur_date": "09/18/2016", "type": "LARCENY-NON VEHICLE", "day": "Sun", "street_address": "53 CRUMLEY ST SE"}, {"neighborhood": "Summerhill", "occur_time": "14", "longitude": "-84.387680000000003", "latitude": "33.742060000000002", "occur_date": "09/18/2016", "type": "LARCENY-NON VEHICLE", "day": "Sun", "street_address": "450 CAPITOL AVE SE"}, {"neighborhood": "Summerhill", "occur_time": "20", "longitude": "-84.384240000000005", "latitude": "33.739339999999999", "occur_date": "09/19/2016", "type": "ROBBERY-COMMERCIAL", "day": "Mon", "street_address": "559 MARTIN ST SE"}, {"neighborhood": "Summerhill", "occur_time": "08", "longitude": "-84.384299999999996", "latitude": "33.735950000000003", "occur_date": "09/22/2016", "type": "LARCENY-FROM VEHICLE", "day": "Thu", "street_address": "683 MARTIN ST SE"}, {"neighborhood": "Summerhill", "occur_time": "10", "longitude": "-84.386120000000005", "latitude": "33.741169999999997", "occur_date": "09/24/2016", "type": "LARCENY-FROM VEHICLE", "day": "Sat", "street_address": "486 FRASER ST SE;"}, {"neighborhood": "Summerhill", "occur_time": "18", "longitude": "-84.382429999999999", "latitude": "33.739579999999997", "occur_date": "09/27/2016", "type": "LARCENY-FROM VEHICLE", "day": "Wed", "street_address": "162 CRUMLEY ST SE"}, {"neighborhood": "Summerhill", "occur_time": "20", "longitude": "-84.386859999999999", "latitude": "33.742289999999997", "occur_date": "09/26/2016", "type": "LARCENY-NON VEHICLE", "day": "Unk", "street_address": "450 CAPITOL AVE SE"}, {"neighborhood": "Summerhill", "occur_time": "07", "longitude": "-84.387680000000003", "latitude": "33.742060000000002", "occur_date": "09/27/2016", "type": "LARCENY-NON VEHICLE", "day": "Tue", "street_address": "450 CAPITOL AVE SE"}, {"neighborhood": "Summerhill", "occur_time": "18", "longitude": "-84.386859999999999", "latitude": "33.742289999999997", "occur_date": "09/30/2016", "type": "LARCENY-FROM VEHICLE", "day": "Fri", "street_address": "450 CAPITOL AVE SE @CARTER HALL"}, {"neighborhood": "Summerhill", "occur_time": "17", "longitude": "-84.388999999999996", "latitude": "33.736240000000002", "occur_date": "10/01/2016", "type": "LARCENY-FROM VEHICLE", "day": "Sat", "street_address": "755 HANK AARON DR SW @TURNER FIELD"}, {"neighborhood": "Summerhill", "occur_time": "19", "longitude": "-84.388999999999996", "latitude": "33.736240000000002", "occur_date": "10/02/2016", "type": "LARCENY-NON VEHICLE", "day": "Sun", "street_address": "755 HANK AARON DR SW @TURNER FIELD"}, {"neighborhood": "Summerhill", "occur_time": "12", "longitude": "-84.391270000000006", "latitude": "33.734050000000003", "occur_date": "10/05/2016", "type": "LARCENY-FROM VEHICLE", "day": "Wed", "street_address": "759 POLLARD BLVD SW"}, {"neighborhood": "Summerhill", "occur_time": "11", "longitude": "-84.387680000000003", "latitude": "33.742060000000002", "occur_date": "10/05/2016", "type": "LARCENY-NON VEHICLE", "day": "Wed", "street_address": "450 CAPITOL AVE SE"}, {"neighborhood": "Summerhill", "occur_time": "16", "longitude": "-84.384640000000005", "latitude": "33.733310000000003", "occur_date": "10/05/2016", "type": "LARCENY-FROM VEHICLE", "day": "Unk", "street_address": "96 LITTLE ST SE"}, {"neighborhood": "Summerhill", "occur_time": "04", "longitude": "-84.383899999999997", "latitude": "33.739730000000002", "occur_date": "10/11/2016", "type": "LARCENY-FROM VEHICLE", "day": "Tue", "street_address": "548 MARTIN ST"}, {"neighborhood": "Summerhill", "occur_time": "05", "longitude": "-84.383939999999996", "latitude": "33.739579999999997", "occur_date": "10/11/2016", "type": "LARCENY-FROM VEHICLE", "day": "Tue", "street_address": "118 CRUMLEY ST"}, {"neighborhood": "Summerhill", "occur_time": "09", "longitude": "-84.386859999999999", "latitude": "33.742289999999997", "occur_date": "10/14/2016", "type": "LARCENY-NON VEHICLE", "day": "Fri", "street_address": "450 CAPITOL AVE SE @CARTER HALL"}, {"neighborhood": "Summerhill", "occur_time": "22", "longitude": "-84.382570000000001", "latitude": "33.7318", "occur_date": "10/27/2016", "type": "AUTO THEFT", "day": "Fri", "street_address": "164 ORMOND ST SE"}, {"neighborhood": "Summerhill", "occur_time": "23", "longitude": "-84.390990000000002", "latitude": "33.733980000000003", "occur_date": "10/30/2016", "type": "LARCENY-FROM VEHICLE", "day": "Mon", "street_address": "759 POLLARD BLVD SW"}, {"neighborhood": "Summerhill", "occur_time": "21", "longitude": "-84.381150000000005", "latitude": "33.732909999999997", "occur_date": "11/01/2016", "type": "BURGLARY-NONRES", "day": "Wed", "street_address": "205 LITTLE ST SE"}, {"neighborhood": "Summerhill", "occur_time": "21", "longitude": "-84.38391", "latitude": "33.738500000000002", "occur_date": "11/11/2016", "type": "AGG ASSAULT", "day": "Fri", "street_address": "592 MARTIN ST SE"}, {"neighborhood": "Summerhill", "occur_time": "18", "longitude": "-84.382549999999995", "latitude": "33.732219999999998", "occur_date": "11/14/2016", "type": "BURGLARY-RESIDENCE", "day": "Mon", "street_address": "161 SOUTH AVE SE"}, {"neighborhood": "Summerhill", "occur_time": "14", "longitude": "-84.391270000000006", "latitude": "33.734050000000003", "occur_date": "11/16/2016", "type": "LARCENY-NON VEHICLE", "day": "Wed", "street_address": "759 POLLARD BLVD SW @HOWARD JOHNSONS S"}, {"neighborhood": "Summerhill", "occur_time": "20", "longitude": "-84.386859999999999", "latitude": "33.742289999999997", "occur_date": "11/16/2016", "type": "ROBBERY-PEDESTRIAN", "day": "Wed", "street_address": "450 CAPITOL AVE SE @CARTER HALL"}, {"neighborhood": "Summerhill", "occur_time": "08", "longitude": "-84.385490000000004", "latitude": "33.733229999999999", "occur_date": "11/21/2016", "type": "LARCENY-FROM VEHICLE", "day": "Mon", "street_address": "74 LITTILE ST SE"}, {"neighborhood": "Summerhill", "occur_time": "07", "longitude": "-84.384320000000002", "latitude": "33.737380000000002", "occur_date": "11/24/2016", "type": "LARCENY-FROM VEHICLE", "day": "Thu", "street_address": "631 MARTIN ST SE"}, {"neighborhood": "Summerhill", "occur_time": "17", "longitude": "-84.383759999999995", "latitude": "33.738169999999997", "occur_date": "11/27/2016", "type": "ROBBERY-PEDESTRIAN", "day": "Sun", "street_address": "600 MARTIN ST SE"}, {"neighborhood": "Summerhill", "occur_time": "01", "longitude": "-84.391270000000006", "latitude": "33.734050000000003", "occur_date": "12/03/2016", "type": "LARCENY-FROM VEHICLE", "day": "Sat", "street_address": "759 POLLARD BLVD SW"}, {"neighborhood": "Summerhill", "occur_time": "00", "longitude": "-84.386049999999997", "latitude": "33.740540000000003", "occur_date": "12/09/2016", "type": "LARCENY-FROM VEHICLE", "day": "Fri", "street_address": "502 FRASER ST SE"}, {"neighborhood": "Summerhill", "occur_time": "01", "longitude": "-84.384339999999995", "latitude": "33.734679999999997", "occur_date": "12/11/2016", "type": "ROBBERY-PEDESTRIAN", "day": "Sun", "street_address": "729 MARTIN ST SE"}, {"neighborhood": "Summerhill", "occur_time": "07", "longitude": "-84.382270000000005", "latitude": "33.740989999999996", "occur_date": "12/15/2016", "type": "AUTO THEFT", "day": "Thu", "street_address": "164 RICHARDSON ST SE"}, {"neighborhood": "Summerhill", "occur_time": "19", "longitude": "-84.385720000000006", "latitude": "33.740319999999997", "occur_date": "12/19/2016", "type": "LARCENY-FROM VEHICLE", "day": "Mon", "street_address": "509 REED ST SE"}, {"neighborhood": "Summerhill", "occur_time": "15", "longitude": "-84.381150000000005", "latitude": "33.732909999999997", "occur_date": "12/19/2016", "type": "BURGLARY-RESIDENCE", "day": "Mon", "street_address": "205 LITTLE ST SE"}, {"neighborhood": "Summerhill", "occur_time": "12", "longitude": "-84.385739999999998", "latitude": "33.739150000000002", "occur_date": "12/22/2016", "type": "LARCENY-NON VEHICLE", "day": "Thu", "street_address": "561 REED ST SE"}, {"neighborhood": "Summerhill", "occur_time": "23", "longitude": "-84.38682", "latitude": "33.732419999999998", "occur_date": "12/23/2016", "type": "LARCENY-FROM VEHICLE", "day": "Sat", "street_address": "813 FRASER ST SE"}, {"neighborhood": "Summerhill", "occur_time": "00", "longitude": "-84.383139999999997", "latitude": "33.739800000000002", "occur_date": "12/24/2016", "type": "LARCENY-FROM VEHICLE", "day": "Sat", "street_address": "137 RICHMOND ST SE"}, {"neighborhood": "Summerhill", "occur_time": "15", "longitude": "-84.384320000000002", "latitude": "33.737380000000002", "occur_date": "12/24/2016", "type": "ROBBERY-PEDESTRIAN", "day": "Sat", "street_address": "631 MARTIN ST SE"}, {"neighborhood": "Summerhill", "occur_time": "16", "longitude": "-84.381900000000002", "latitude": "33.732939999999999", "occur_date": "12/24/2016", "type": "LARCENY-NON VEHICLE", "day": "Sat", "street_address": "183 LITTLE ST SE"}, {"neighborhood": "Summerhill", "occur_time": "09", "longitude": "-84.384630000000001", "latitude": "33.739350000000002", "occur_date": "12/24/2016", "type": "BURGLARY-RESIDENCE", "day": "Unk", "street_address": "562 TERRY ST SE"}, {"neighborhood": "Summerhill", "occur_time": "18", "longitude": "-84.384309999999999", "latitude": "33.739600000000003", "occur_date": "12/28/2016", "type": "LARCENY-FROM VEHICLE", "day": "Wed", "street_address": "102 CRUMLEY ST SE"}, {"neighborhood": "Summerhill", "occur_time": "14", "longitude": "-84.391499999999994", "latitude": "33.741849999999999", "occur_date": "06/01/2016", "type": "HOMICIDE", "day": "Wed", "street_address": "1662 SYLVAN RD SW"}, {"neighborhood": "Summerhill", "occur_time": "10", "longitude": "-84.387820000000005", "latitude": "33.732379999999999", "occur_date": "02/19/2016", "type": "HOMICIDE", "day": "Fri", "street_address": "816 HANK AARON DR SE"}]