[{"neighborhood": "Tuxedo Park", "occur_time": "18", "longitude": "-84.404820000000001", "latitude": "33.854950000000002", "occur_date": "01/26/2016", "type": "BURGLARY-RESIDENCE", "day": "Unk", "street_address": "3659 NORTHSIDE DR NW"}, {"neighborhood": "Tuxedo Park", "occur_time": "19", "longitude": "-84.383009999999999", "latitude": "33.854089999999999", "occur_date": "02/14/2016", "type": "LARCENY-FROM VEHICLE", "day": "Sun", "street_address": "3652 ROSWELL RD NW"}, {"neighborhood": "Tuxedo Park", "occur_time": "15", "longitude": "-84.401229999999998", "latitude": "33.848579999999998", "occur_date": "02/13/2016", "type": "LARCENY-NON VEHICLE", "day": "Unk", "street_address": "3403 TUXEDO RD NW"}, {"neighborhood": "Tuxedo Park", "occur_time": "04", "longitude": "-84.383009999999999", "latitude": "33.854089999999999", "occur_date": "03/06/2016", "type": "LARCENY-NON VEHICLE", "day": "Sun", "street_address": "3652 ROSWELL RD NW"}, {"neighborhood": "Tuxedo Park", "occur_time": "04", "longitude": "-84.389359999999996", "latitude": "33.858840000000001", "occur_date": "03/14/2016", "type": "AUTO THEFT", "day": "Mon", "street_address": "56 PUTNAM DR NW"}, {"neighborhood": "Tuxedo Park", "occur_time": "02", "longitude": "-84.38297", "latitude": "33.854750000000003", "occur_date": "05/03/2016", "type": "BURGLARY-NONRES", "day": "Tue", "street_address": "3658 ROSWELL RD NW"}, {"neighborhood": "Tuxedo Park", "occur_time": "19", "longitude": "-84.388239999999996", "latitude": "33.849240000000002", "occur_date": "05/07/2016", "type": "AUTO THEFT", "day": "Sat", "street_address": "15 VALLEY RD NW"}, {"neighborhood": "Tuxedo Park", "occur_time": "19", "longitude": "-84.396240000000006", "latitude": "33.85136", "occur_date": "06/14/2016", "type": "LARCENY-NON VEHICLE", "day": "Wed", "street_address": "3526 KNOLLWOOD DR"}, {"neighborhood": "Tuxedo Park", "occur_time": "10", "longitude": "-84.396349999999998", "latitude": "33.850920000000002", "occur_date": "07/23/2016", "type": "LARCENY-FROM VEHICLE", "day": "Sat", "street_address": "3526 KNOLLWOOD DR NW"}, {"neighborhood": "Tuxedo Park", "occur_time": "06", "longitude": "-84.38503", "latitude": "33.852969999999999", "occur_date": "08/08/2016", "type": "BURGLARY-RESIDENCE", "day": "Mon", "street_address": "79 HONOUR CIR NW"}, {"neighborhood": "Tuxedo Park", "occur_time": "14", "longitude": "-84.38297", "latitude": "33.854750000000003", "occur_date": "08/22/2016", "type": "LARCENY-FROM VEHICLE", "day": "Mon", "street_address": "3658 ROSWELL RD NW"}, {"neighborhood": "Tuxedo Park", "occur_time": "17", "longitude": "-84.405869999999993", "latitude": "33.853070000000002", "occur_date": "08/09/2016", "type": "LARCENY-NON VEHICLE", "day": "Tue", "street_address": "3574 TUXEDO RD NW"}, {"neighborhood": "Tuxedo Park", "occur_time": "05", "longitude": "-84.392210000000006", "latitude": "33.858440000000002", "occur_date": "09/01/2016", "type": "LARCENY-FROM VEHICLE", "day": "Thu", "street_address": "1950 CHILDRESS DR SW"}, {"neighborhood": "Tuxedo Park", "occur_time": "19", "longitude": "-84.394229999999993", "latitude": "33.859670000000001", "occur_date": "09/13/2016", "type": "ROBBERY-PEDESTRIAN", "day": "Tue", "street_address": "205 BLACKLAND RD NW"}, {"neighborhood": "Tuxedo Park", "occur_time": "18", "longitude": "-84.405869999999993", "latitude": "33.853070000000002", "occur_date": "08/20/2016", "type": "LARCENY-NON VEHICLE", "day": "Sat", "street_address": "3574 TUXEDO RD NW"}, {"neighborhood": "Tuxedo Park", "occur_time": "09", "longitude": "-84.386930000000007", "latitude": "33.850560000000002", "occur_date": "09/30/2016", "type": "BURGLARY-RESIDENCE", "day": "Fri", "street_address": "3510 HABERSHAM RD NW"}, {"neighborhood": "Tuxedo Park", "occur_time": "12", "longitude": "-84.407110000000003", "latitude": "33.851610000000001", "occur_date": "10/07/2016", "type": "LARCENY-FROM VEHICLE", "day": "Fri", "street_address": "3465 NORTHSIDE PKWY NW"}, {"neighborhood": "Tuxedo Park", "occur_time": "22", "longitude": "-84.383009999999999", "latitude": "33.854089999999999", "occur_date": "10/14/2016", "type": "LARCENY-FROM VEHICLE", "day": "Fri", "street_address": "3652 ROSWELL RD NW @LANDMARK DINER"}, {"neighborhood": "Tuxedo Park", "occur_time": "10", "longitude": "-84.387119999999996", "latitude": "33.858690000000003", "occur_date": "11/02/2016", "type": "BURGLARY-RESIDENCE", "day": "Wed", "street_address": "2 PUTNAM DR NW"}, {"neighborhood": "Tuxedo Park", "occur_time": "16", "longitude": "-84.384450000000001", "latitude": "33.852699999999999", "occur_date": "11/16/2016", "type": "LARCENY-NON VEHICLE", "day": "Unk", "street_address": "3636 HABERSHAM RD NW"}, {"neighborhood": "Tuxedo Park", "occur_time": "12", "longitude": "-84.405860000000004", "latitude": "33.852330000000002", "occur_date": "12/19/2016", "type": "LARCENY-NON VEHICLE", "day": "Mon", "street_address": "3564  TUXCEDO RD"}]