[{"neighborhood": "Whittier Mill Village", "occur_time": "14", "longitude": "-84.478300000000004", "latitude": "33.811109999999999", "occur_date": "01/05/2016", "type": "LARCENY-NON VEHICLE", "day": "Tue", "street_address": "2066 HATTERAS WAY NW"}, {"neighborhood": "Whittier Mill Village", "occur_time": "19", "longitude": "-84.477599999999995", "latitude": "33.81306", "occur_date": "01/07/2016", "type": "LARCENY-NON VEHICLE", "day": "Fri", "street_address": "2093 CALLAWAY CT NW"}, {"neighborhood": "Whittier Mill Village", "occur_time": "20", "longitude": "-84.480559999999997", "latitude": "33.810400000000001", "occur_date": "01/29/2016", "type": "ROBBERY-PEDESTRIAN", "day": "Fri", "street_address": "2034 HATTERAS WAY NW"}, {"neighborhood": "Whittier Mill Village", "occur_time": "00", "longitude": "-84.480599999999995", "latitude": "33.81221", "occur_date": "01/25/2016", "type": "LARCENY-NON VEHICLE", "day": "Unk", "street_address": "2133 SHALE LN"}, {"neighborhood": "Whittier Mill Village", "occur_time": "21", "longitude": "-84.48254", "latitude": "33.808909999999997", "occur_date": "03/29/2016", "type": "AUTO THEFT", "day": "Wed", "street_address": "2920 PARROTT AVE NW"}, {"neighborhood": "Whittier Mill Village", "occur_time": "07", "longitude": "-84.477930000000001", "latitude": "33.814549999999997", "occur_date": "04/18/2016", "type": "LARCENY-FROM VEHICLE", "day": "Mon", "street_address": "2140 JAMES JACKSON PKWY NW"}, {"neighborhood": "Whittier Mill Village", "occur_time": "02", "longitude": "-84.477350000000001", "latitude": "33.810839999999999", "occur_date": "05/06/2016", "type": "LARCENY-FROM VEHICLE", "day": "Fri", "street_address": "2000 BOLTON RD NW"}, {"neighborhood": "Whittier Mill Village", "occur_time": "22", "longitude": "-84.477029999999999", "latitude": "33.811160000000001", "occur_date": "05/08/2016", "type": "ROBBERY-PEDESTRIAN", "day": "Sun", "street_address": "2018 BOLTON RD NW"}, {"neighborhood": "Whittier Mill Village", "occur_time": "11", "longitude": "-84.477440000000001", "latitude": "33.810720000000003", "occur_date": "05/14/2016", "type": "LARCENY-NON VEHICLE", "day": "Sat", "street_address": "2001 JAMES JACKSON PKWY NW"}, {"neighborhood": "Whittier Mill Village", "occur_time": "15", "longitude": "-84.477029999999999", "latitude": "33.811160000000001", "occur_date": "06/16/2016", "type": "LARCENY-FROM VEHICLE", "day": "Thu", "street_address": "2018 BOLTON RD NW"}, {"neighborhood": "Whittier Mill Village", "occur_time": "23", "longitude": "-84.477029999999999", "latitude": "33.811160000000001", "occur_date": "06/17/2016", "type": "LARCENY-FROM VEHICLE", "day": "Fri", "street_address": "2018 BOLTON RD NW"}, {"neighborhood": "Whittier Mill Village", "occur_time": "10", "longitude": "-84.477029999999999", "latitude": "33.811160000000001", "occur_date": "06/19/2016", "type": "AUTO THEFT", "day": "Sun", "street_address": "2018 BOLTON RD NW"}, {"neighborhood": "Whittier Mill Village", "occur_time": "07", "longitude": "-84.477029999999999", "latitude": "33.811160000000001", "occur_date": "06/29/2016", "type": "LARCENY-FROM VEHICLE", "day": "Wed", "street_address": "2018 BOLTON RD NW"}, {"neighborhood": "Whittier Mill Village", "occur_time": "07", "longitude": "-84.484170000000006", "latitude": "33.808579999999999", "occur_date": "07/01/2016", "type": "LARCENY-FROM VEHICLE", "day": "Fri", "street_address": "2970 PARROT AVE NW @FINA OIL CO"}, {"neighborhood": "Whittier Mill Village", "occur_time": "10", "longitude": "-84.47663", "latitude": "33.81129", "occur_date": "07/03/2016", "type": "LARCENY-FROM VEHICLE", "day": "Sun", "street_address": "2020 BOLTON RD NW"}, {"neighborhood": "Whittier Mill Village", "occur_time": "05", "longitude": "-84.480149999999995", "latitude": "33.813110000000002", "occur_date": "07/09/2016", "type": "AUTO THEFT", "day": "Sat", "street_address": "2137 SHALE LN NW"}, {"neighborhood": "Whittier Mill Village", "occur_time": "21", "longitude": "-84.478909999999999", "latitude": "33.813000000000002", "occur_date": "07/12/2016", "type": "LARCENY-FROM VEHICLE", "day": "Tue", "street_address": "2064 CALLAWAY CT NW"}, {"neighborhood": "Whittier Mill Village", "occur_time": "14", "longitude": "-84.477980000000002", "latitude": "33.812150000000003", "occur_date": "07/24/2016", "type": "LARCENY-FROM VEHICLE", "day": "Sun", "street_address": "2086 HATTERAS WAY NW"}, {"neighborhood": "Whittier Mill Village", "occur_time": "16", "longitude": "-84.477599999999995", "latitude": "33.81306", "occur_date": "07/24/2016", "type": "LARCENY-FROM VEHICLE", "day": "Sun", "street_address": "2093 CALLAWAY CT NW"}, {"neighborhood": "Whittier Mill Village", "occur_time": "15", "longitude": "-84.477029999999999", "latitude": "33.811160000000001", "occur_date": "08/01/2016", "type": "LARCENY-FROM VEHICLE", "day": "Mon", "street_address": "2018 BOLTON RD NW"}, {"neighborhood": "Whittier Mill Village", "occur_time": "12", "longitude": "-84.477029999999999", "latitude": "33.811160000000001", "occur_date": "08/07/2016", "type": "AUTO THEFT", "day": "Sun", "street_address": "2018 BOLTON RD NW"}, {"neighborhood": "Whittier Mill Village", "occur_time": "11", "longitude": "-84.485709999999997", "latitude": "33.811149999999998", "occur_date": "08/11/2016", "type": "ROBBERY-PEDESTRIAN", "day": "Thu", "street_address": "2000 SPAD AVE NW @WHITTIER MILLS PARK"}, {"neighborhood": "Whittier Mill Village", "occur_time": "15", "longitude": "-84.477720000000005", "latitude": "33.813969999999998", "occur_date": "09/01/2016", "type": "LARCENY-FROM VEHICLE", "day": "Thu", "street_address": "2124 JAMES JACKSON PKWY NW"}, {"neighborhood": "Whittier Mill Village", "occur_time": "20", "longitude": "-84.479219999999998", "latitude": "33.813540000000003", "occur_date": "09/12/2016", "type": "LARCENY-FROM VEHICLE", "day": "Tue", "street_address": "2095 SILAS WAY NW"}, {"neighborhood": "Whittier Mill Village", "occur_time": "09", "longitude": "-84.477029999999999", "latitude": "33.811160000000001", "occur_date": "09/15/2016", "type": "AUTO THEFT", "day": "Thu", "street_address": "2018 BOLTON RD NW"}, {"neighborhood": "Whittier Mill Village", "occur_time": "22", "longitude": "-84.480729999999994", "latitude": "33.810659999999999", "occur_date": "09/16/2016", "type": "LARCENY-FROM VEHICLE", "day": "Sat", "street_address": "2068 OLD GEORGIAN TER NW"}, {"neighborhood": "Whittier Mill Village", "occur_time": "14", "longitude": "-84.477029999999999", "latitude": "33.811160000000001", "occur_date": "09/21/2016", "type": "LARCENY-FROM VEHICLE", "day": "Wed", "street_address": "2018 BOLTON RD NW"}, {"neighborhood": "Whittier Mill Village", "occur_time": "10", "longitude": "-84.477720000000005", "latitude": "33.813969999999998", "occur_date": "09/23/2016", "type": "LARCENY-FROM VEHICLE", "day": "Fri", "street_address": "2124 JAMES JACKSON PKWY NW"}, {"neighborhood": "Whittier Mill Village", "occur_time": "11", "longitude": "-84.477029999999999", "latitude": "33.811160000000001", "occur_date": "10/02/2016", "type": "LARCENY-FROM VEHICLE", "day": "Sun", "street_address": "2018 BOLTON RD NW"}, {"neighborhood": "Whittier Mill Village", "occur_time": "20", "longitude": "-84.477029999999999", "latitude": "33.811160000000001", "occur_date": "10/07/2016", "type": "AUTO THEFT", "day": "Fri", "street_address": "2018 BOLTON RD NW"}, {"neighborhood": "Whittier Mill Village", "occur_time": "07", "longitude": "-84.477029999999999", "latitude": "33.811160000000001", "occur_date": "10/08/2016", "type": "LARCENY-FROM VEHICLE", "day": "Sat", "street_address": "2018 BOLTON RD NW"}, {"neighborhood": "Whittier Mill Village", "occur_time": "20", "longitude": "-84.480050000000006", "latitude": "33.811770000000003", "occur_date": "10/07/2016", "type": "LARCENY-FROM VEHICLE", "day": "Sat", "street_address": "2043 VILLAGE CREST DR NW"}, {"neighborhood": "Whittier Mill Village", "occur_time": "00", "longitude": "-84.479219999999998", "latitude": "33.813540000000003", "occur_date": "10/26/2016", "type": "LARCENY-FROM VEHICLE", "day": "Wed", "street_address": "2095 SILAS WAY NW"}, {"neighborhood": "Whittier Mill Village", "occur_time": "20", "longitude": "-84.483109999999996", "latitude": "33.813070000000003", "occur_date": "11/06/2016", "type": "LARCENY-FROM VEHICLE", "day": "Mon", "street_address": "2093 BUTLER WAY NW"}, {"neighborhood": "Whittier Mill Village", "occur_time": "03", "longitude": "-84.480580000000003", "latitude": "33.81071", "occur_date": "11/22/2016", "type": "LARCENY-FROM VEHICLE", "day": "Tue", "street_address": "2066 OLD GEORGIAN TER NW"}, {"neighborhood": "Whittier Mill Village", "occur_time": "19", "longitude": "-84.477029999999999", "latitude": "33.811160000000001", "occur_date": "12/01/2016", "type": "AUTO THEFT", "day": "Thu", "street_address": "2018 BOLTON RD NW"}, {"neighborhood": "Whittier Mill Village", "occur_time": "19", "longitude": "-84.482280000000003", "latitude": "33.810639999999999", "occur_date": "12/05/2016", "type": "LARCENY-FROM VEHICLE", "day": "Tue", "street_address": "2891 FABIN ST NW"}, {"neighborhood": "Whittier Mill Village", "occur_time": "08", "longitude": "-84.484350000000006", "latitude": "33.809040000000003", "occur_date": "12/22/2016", "type": "LARCENY-FROM VEHICLE", "day": "Thu", "street_address": "1 SPRING CIR NW"}]